[{"name":"Vinayak Temple","latitude":12.9873361,"longitude":80.2341772,"user_rating":3.3,"category":"hindu_temple","num_user_rated":4,"vicinity":"Temple Rd, Indian Institute Of Technology, Chennai","time":60,"week_open_time":["06:30","16:00"],"week_close_time":["12:00","21:00"],"weekend_open_time":["6:30"],"weekend_close_time":["13:00"]},{"name":"Vyagrapureeswarar Temple","latitude":12.7154047,"longitude":79.9784214,"user_rating":4.5,"category":"hindu_temple","num_user_rated":54,"vicinity":"Thirutheri R.F.","time":60,"week_open_time":["06:30","16:00"],"week_close_time":["12:00","21:00"],"weekend_open_time":["6:30"],"weekend_close_time":["13:00"]},{"name":"Yoganarasimhar Temple","latitude":12.9838859,"longitude":80.2224318,"user_rating":4.5,"category":"hindu_temple","num_user_rated":17,"vicinity":"Velachery Main Rd, Ram Nagar, Murugapakkam, Velachery, Chennai","time":60,"week_open_time":["06:30","16:00"],"week_close_time":["12:00","21:00"],"weekend_open_time":["6:30"],"weekend_close_time":["13:00"]},{"name":"Amma Park","latitude":13.175975,"longitude":80.204503,"user_rating":3.6,"category":"park","num_user_rated":39,"vicinity":"Grant Lyon, Red Hills, Payasambakkam","time":60,"week_open_time":["09:00"],"week_close_time":["17:30"],"weekend_open_time":["09:00"],"weekend_close_time":["17:30"]},{"name":"Assisi Nagar Park","latitude":13.162469,"longitude":80.2328442,"user_rating":4.7,"category":"park","num_user_rated":7,"vicinity":"9th St, Assisi Nagar, Madhavaram, Chennai","time":60,"week_open_time":["09:00"],"week_close_time":["17:30"],"weekend_open_time":["09:00"],"weekend_close_time":["17:30"]},{"name":"Baby Nagar Park","latitude":12.9791078,"longitude":80.2290039,"user_rating":3.5,"category":"park","num_user_rated":410,"vicinity":"2nd Main Rd, Baby Nagar, Velachery, Chennai","time":60,"week_open_time":["09:00"],"week_close_time":["17:30"],"weekend_open_time":["09:00"],"weekend_close_time":["17:30"]},{"name":"Birla Avenue Park","latitude":13.1448167,"longitude":80.2007981,"user_rating":4,"category":"park","num_user_rated":167,"vicinity":"Surapet Main Rd, Iyappa Nagar Extension, Padmavathi Nagar, Puzhal, Chennai","time":60,"week_open_time":["09:00"],"week_close_time":["17:30"],"weekend_open_time":["09:00"],"weekend_close_time":["17:30"]},{"name":"Chennai Corporation Childrens Park","latitude":12.9837322,"longitude":80.2169678,"user_rating":3,"category":"park","num_user_rated":33,"vicinity":"Ward No. 177, Zone. 40A, 2nd Main Rd, Gangai Nagar, Velachery, Chennai","time":60,"week_open_time":["09:00"],"week_close_time":["17:30"],"weekend_open_time":["09:00"],"weekend_close_time":["17:30"]},{"name":"Chennai Corporation Childrens Park","latitude":12.9837988,"longitude":80.2281936,"user_rating":4,"category":"park","num_user_rated":30,"vicinity":"Shanthi 1st Cross St, VGP Seethapathy Nagar, Velachery, Chennai","time":60,"week_open_time":["09:00"],"week_close_time":["17:30"],"weekend_open_time":["09:00"],"weekend_close_time":["17:30"]},{"name":"Chennai Corporation Park","latitude":13.0890553,"longitude":80.1931069,"user_rating":4.1,"category":"park","num_user_rated":114,"vicinity":"Block No. 49A, Theravidam, Park Street, Welcome Colony, Anna Nagar West Extension, Chennai","time":60,"week_open_time":["09:00"],"week_close_time":["17:30"],"weekend_open_time":["09:00"],"weekend_close_time":["17:30"]},{"name":"Chennai Corporation Park","latitude":13.0956878,"longitude":80.2573608,"user_rating":3.5,"category":"park","num_user_rated":68,"vicinity":"Ward 176, Part 17, Park St, Pattalam, Conran Smith Nagar, Ethiraj Gardens, Purasaiwakkam, Chennai","time":60,"week_open_time":["09:00"],"week_close_time":["17:30"],"weekend_open_time":["09:00"],"weekend_close_time":["17:30"]},{"name":"Chennai Municipality Park","latitude":13.1238889,"longitude":80.2004263,"user_rating":3.9,"category":"park","num_user_rated":53,"vicinity":"Santhosh Nagar, Lakshmipuram, Chennai","time":60,"week_open_time":["09:00"],"week_close_time":["17:30"],"weekend_open_time":["09:00"],"weekend_close_time":["17:30"]},{"name":"Childrens Park- Adambakkam","latitude":12.9846384,"longitude":80.2047751,"user_rating":4,"category":"park","num_user_rated":116,"vicinity":"zone.40.a, Ward No.177, Mandalam, Mahalakshmi Nagar, Adambakkam, 600088, 13, 1st Cross St, Lakshmi Nagar, Velachery, Chennai","time":60,"week_open_time":["09:00"],"week_close_time":["17:30"],"weekend_open_time":["09:00"],"weekend_close_time":["17:30"]},{"name":"Collector nagar Park","latitude":13.1490231,"longitude":80.2005403,"user_rating":4,"category":"park","num_user_rated":158,"vicinity":"2, Collector Nagar St, INTUC Nagar, Puzhal, Kadirvedu","time":60,"week_open_time":["09:00"],"week_close_time":["17:30"],"weekend_open_time":["09:00"],"weekend_close_time":["17:30"]},{"name":"Community Park","latitude":13.1236241,"longitude":79.9206072,"user_rating":3.9,"category":"park","num_user_rated":228,"vicinity":"Old NGGO Colony, Thiruvallur","time":60,"week_open_time":["09:00"],"week_close_time":["17:30"],"weekend_open_time":["09:00"],"weekend_close_time":["17:30"]},{"name":"Corporation Park","latitude":13.0304888,"longitude":80.2157029,"user_rating":4.1,"category":"park","num_user_rated":127,"vicinity":"12th Ave, Ragavan Colony, Mettuppalayam, Ashok Nagar, Chennai","time":60,"week_open_time":["09:00"],"week_close_time":["17:30"],"weekend_open_time":["09:00"],"weekend_close_time":["17:30"]},{"name":"Corporation Park","latitude":12.9950976,"longitude":80.2665862,"user_rating":3.8,"category":"park","num_user_rated":152,"vicinity":"Anna Colony, Besant Nagar, Chennai","time":60,"week_open_time":["09:00"],"week_close_time":["17:30"],"weekend_open_time":["09:00"],"weekend_close_time":["17:30"]},{"name":"Corporation Park","latitude":13.0272124,"longitude":80.2448538,"user_rating":3.9,"category":"park","num_user_rated":224,"vicinity":"7, Turnbulls Rd, Boat Club Area, Nandanam, Chennai","time":60,"week_open_time":["09:00"],"week_close_time":["17:30"],"weekend_open_time":["09:00"],"weekend_close_time":["17:30"]},{"name":"Corporation Park","latitude":12.9759144,"longitude":80.2178486,"user_rating":3.4,"category":"park","num_user_rated":36,"vicinity":"1st, Main Rd, BHEL Shakthi Nagar, Devi Karumariamman Nagar Extension, Velachery, Chennai","time":60,"week_open_time":["09:00"],"week_close_time":["17:30"],"weekend_open_time":["09:00"],"weekend_close_time":["17:30"]},{"name":"Corporation Park","latitude":12.9776329,"longitude":80.2099875,"user_rating":4,"category":"park","num_user_rated":152,"vicinity":"10, 4th Cross St, AGS Colony, Velachery, Chennai","time":60,"week_open_time":["09:00"],"week_close_time":["17:30"],"weekend_open_time":["09:00"],"weekend_close_time":["17:30"]},{"name":"Corporation park","latitude":12.9775986,"longitude":80.2089722,"user_rating":4.6,"category":"park","num_user_rated":140,"vicinity":"5th St, Saraswathi Nagar, AGS Colony, Adambakkam, Chennai","time":60,"week_open_time":["09:00"],"week_close_time":["17:30"],"weekend_open_time":["09:00"],"weekend_close_time":["17:30"]},{"name":"Dhandeeswaram park","latitude":12.9830709,"longitude":80.2219467,"user_rating":3.7,"category":"park","num_user_rated":122,"vicinity":"Velachery Bypass Road, No.74-A, Velachery Main Rd, Ram Nagar, Dhadeswaram Nagar, Velachery, Chennai","time":60,"week_open_time":["09:00"],"week_close_time":["17:30"],"weekend_open_time":["09:00"],"weekend_close_time":["17:30"]},{"name":"Gandhi Childrens Park","latitude":12.8528776,"longitude":80.0647917,"user_rating":4,"category":"park","num_user_rated":102,"vicinity":"11, NCK Avenure, Guduvanchery","time":60,"week_open_time":["09:00"],"week_close_time":["17:30"],"weekend_open_time":["09:00"],"weekend_close_time":["17:30"]},{"name":"Government Park","latitude":12.9907615,"longitude":80.2173863,"user_rating":4.7,"category":"park","num_user_rated":22,"vicinity":"Indira Gandhi Nagar, Velachery, Chennai","time":60,"week_open_time":["09:00"],"week_close_time":["17:30"],"weekend_open_time":["09:00"],"weekend_close_time":["17:30"]},{"name":"Guindy National Park","latitude":13.0049251,"longitude":80.2378725,"user_rating":4.1,"category":"park","num_user_rated":17061,"vicinity":"Rangeguindy, Chennai","time":60,"week_open_time":["09:00"],"week_close_time":["17:30"],"weekend_open_time":["09:00"],"weekend_close_time":["17:30"]},{"name":"Kids Park","latitude":12.981124,"longitude":80.2214566,"user_rating":3.9,"category":"park","num_user_rated":72,"vicinity":"Velachery Main Rd, Dhandeeswaram, Velachery, Chennai","time":60,"week_open_time":["09:00"],"week_close_time":["17:30"],"weekend_open_time":["09:00"],"weekend_close_time":["17:30"]},{"name":"Madhavaram Tree Park","latitude":13.1601854,"longitude":80.2413147,"user_rating":4.3,"category":"park","num_user_rated":85,"vicinity":"MMC Aavin Quarters, Madhavaram Milk Colony, Chennai","time":60,"week_open_time":["09:00"],"week_close_time":["17:30"],"weekend_open_time":["09:00"],"weekend_close_time":["17:30"]},{"name":"Millennium Park","latitude":13.094472,"longitude":80.1920398,"user_rating":4.1,"category":"park","num_user_rated":1852,"vicinity":"Park Rd, ONGC Housing, Anna Nagar West Extension, Chennai","time":60,"week_open_time":["09:00"],"week_close_time":["17:30"],"weekend_open_time":["09:00"],"weekend_close_time":["17:30"]},{"name":"Municipality Park","latitude":12.9543849,"longitude":80.1434579,"user_rating":4.1,"category":"park","num_user_rated":152,"vicinity":"Station Border Rd, Lakshmi Nagar, Shanthi Nagar, Chromepet, Chennai","time":60,"week_open_time":["09:00"],"week_close_time":["17:30"],"weekend_open_time":["09:00"],"weekend_close_time":["17:30"]},{"name":"Municipality Park","latitude":12.9741024,"longitude":80.213953,"user_rating":3.8,"category":"park","num_user_rated":35,"vicinity":"1st St, Srinivasa Nagar Extension, Ram Nagar, Velachery, Chennai","time":60,"week_open_time":["09:00"],"week_close_time":["17:30"],"weekend_open_time":["09:00"],"weekend_close_time":["17:30"]},{"name":"New Park","latitude":13.1302151,"longitude":80.2853477,"user_rating":4.1,"category":"park","num_user_rated":151,"vicinity":"Tondiarpet, Chennai","time":60,"week_open_time":["09:00"],"week_close_time":["17:30"],"weekend_open_time":["09:00"],"weekend_close_time":["17:30"]},{"name":"Park","latitude":13.016569,"longitude":80.160384,"user_rating":3.9,"category":"park","num_user_rated":51,"vicinity":"No.60, Vishwanathan Palani St, VGN Lakshmi Nagar, Mugalivakkam, Chennai","time":60,"week_open_time":["09:00"],"week_close_time":["17:30"],"weekend_open_time":["09:00"],"weekend_close_time":["17:30"]},{"name":"Park","latitude":13.0372939,"longitude":80.1808674,"user_rating":4.1,"category":"park","num_user_rated":500,"vicinity":"11th St, Chowthri Nagar, Nesapakkam, Chennai","time":60,"week_open_time":["09:00"],"week_close_time":["17:30"],"weekend_open_time":["09:00"],"weekend_close_time":["17:30"]},{"name":"Park","latitude":13.1096042,"longitude":80.1060763,"user_rating":4.3,"category":"park","num_user_rated":210,"vicinity":"Ram Nagar, Avadi","time":60,"week_open_time":["09:00"],"week_close_time":["17:30"],"weekend_open_time":["09:00"],"weekend_close_time":["17:30"]},{"name":"Park","latitude":13.0899344,"longitude":80.1996471,"user_rating":4.2,"category":"park","num_user_rated":151,"vicinity":"487, Bharathi Colony, J Block, Ajanta Colony, Anna Nagar, Chennai","time":60,"week_open_time":["09:00"],"week_close_time":["17:30"],"weekend_open_time":["09:00"],"weekend_close_time":["17:30"]},{"name":"Park","latitude":13.0703166,"longitude":80.2276722,"user_rating":4.1,"category":"park","num_user_rated":158,"vicinity":"Officers Colony, Aminjikarai, Chennai","time":60,"week_open_time":["09:00"],"week_close_time":["17:30"],"weekend_open_time":["09:00"],"weekend_close_time":["17:30"]},{"name":"Park","latitude":13.1575217,"longitude":80.2273346,"user_rating":3.9,"category":"park","num_user_rated":127,"vicinity":"6, Madavaram Red Hills Rd, Ring Road Housing Sector, Madhavaram, Manjampakkam","time":60,"week_open_time":["09:00"],"week_close_time":["17:30"],"weekend_open_time":["09:00"],"weekend_close_time":["17:30"]},{"name":"Park","latitude":13.1124138,"longitude":80.1004735,"user_rating":4,"category":"park","num_user_rated":47,"vicinity":"Nehru Nagar, TNHB Mig V Block, Avadi","time":60,"week_open_time":["09:00"],"week_close_time":["17:30"],"weekend_open_time":["09:00"],"weekend_close_time":["17:30"]},{"name":"Park","latitude":13.0067951,"longitude":80.2520226,"user_rating":3.8,"category":"park","num_user_rated":21,"vicinity":"Gandhi Nagar, Adyar, Chennai","time":60,"week_open_time":["09:00"],"week_close_time":["17:30"],"weekend_open_time":["09:00"],"weekend_close_time":["17:30"]},{"name":"Park","latitude":13.1575217,"longitude":80.2273346,"user_rating":3.9,"category":"park","num_user_rated":127,"vicinity":"6, Madavaram Red Hills Rd, Ring Road Housing Sector, Madhavaram, Manjampakkam","time":60,"week_open_time":["09:00"],"week_close_time":["17:30"],"weekend_open_time":["09:00"],"weekend_close_time":["17:30"]},{"name":"Park","latitude":13.1242193,"longitude":80.2075174,"user_rating":3.6,"category":"park","num_user_rated":53,"vicinity":"6/20, Tiru Vi Ka St Thenpalani Nagar, Tiru Vi Ka St, Thenpalani Nagar, Kolathur, Chennai","time":60,"week_open_time":["09:00"],"week_close_time":["17:30"],"weekend_open_time":["09:00"],"weekend_close_time":["17:30"]},{"name":"Public Park, Kallikuppam","latitude":13.1345636,"longitude":80.1774566,"user_rating":4,"category":"park","num_user_rated":141,"vicinity":"Hindustan Motor Nagar, Sri Nagar, Kolathur, Chennai","time":60,"week_open_time":["09:00"],"week_close_time":["17:30"],"weekend_open_time":["09:00"],"weekend_close_time":["17:30"]},{"name":"Secretariat Colony Park","latitude":13.136236,"longitude":80.2097783,"user_rating":4.1,"category":"park","num_user_rated":340,"vicinity":"Secretariat Colony Main Rd, Secretariat Nagar, Lakshmipuram, Chennai","time":60,"week_open_time":["09:00"],"week_close_time":["17:30"],"weekend_open_time":["09:00"],"weekend_close_time":["17:30"]},{"name":"Senthil Nagar Childrens Park","latitude":13.1220761,"longitude":80.2027182,"user_rating":3.8,"category":"park","num_user_rated":106,"vicinity":"13th St, Periyarnagar, Senthil Nagar, Kolathur, Chennai","time":60,"week_open_time":["09:00"],"week_close_time":["17:30"],"weekend_open_time":["09:00"],"weekend_close_time":["17:30"]},{"name":"Siva sakthi Nagar Park","latitude":13.1448869,"longitude":80.2335473,"user_rating":3.7,"category":"park","num_user_rated":50,"vicinity":"Madavaram Red Hills Rd, Siva Sakthi Nagar, Madhavaram, Chennai","time":60,"week_open_time":["09:00"],"week_close_time":["17:30"],"weekend_open_time":["09:00"],"weekend_close_time":["17:30"]},{"name":"Surapet park","latitude":13.1572144,"longitude":80.1961505,"user_rating":4.1,"category":"park","num_user_rated":94,"vicinity":"Kathirvedu Puzhal India, 9, Ambattur Red Hills Rd, Puzhal, Kadirvedu","time":60,"week_open_time":["09:00"],"week_close_time":["17:30"],"weekend_open_time":["09:00"],"weekend_close_time":["17:30"]},{"name":"Thiruvalluvar Park","latitude":13.1596258,"longitude":80.2075714,"user_rating":3.9,"category":"park","num_user_rated":48,"vicinity":"Mettuppalaiyam Puzhal, Vadaperumbakkam","time":60,"week_open_time":["09:00"],"week_close_time":["17:30"],"weekend_open_time":["09:00"],"weekend_close_time":["17:30"]},{"name":"Tirumullaivoyal Park","latitude":13.1327387,"longitude":80.1274032,"user_rating":4.3,"category":"park","num_user_rated":130,"vicinity":"SS Nagar, Thirumullaivoyal, Chennai","time":60,"week_open_time":["09:00"],"week_close_time":["17:30"],"weekend_open_time":["09:00"],"weekend_close_time":["17:30"]},{"name":"VGP nagar park","latitude":13.1378211,"longitude":80.2276072,"user_rating":3.8,"category":"park","num_user_rated":165,"vicinity":"Madhavaram High Rd, Kanakan Chatram, Perambur, Chennai","time":60,"week_open_time":["09:00"],"week_close_time":["17:30"],"weekend_open_time":["09:00"],"weekend_close_time":["17:30"]},{"name":"Vinayagar Temple Childrens Park","latitude":13.1212681,"longitude":80.2025439,"user_rating":4.2,"category":"park","num_user_rated":97,"vicinity":"10th St, Periyarnagar, RK Syndicate Nagar, Kolathur, Chennai","time":60,"week_open_time":["09:00"],"week_close_time":["17:30"],"weekend_open_time":["09:00"],"weekend_close_time":["17:30"]},{"name":"10 Square Mall","latitude":13.0704245,"longitude":80.2027604,"user_rating":3.6,"category":"shopping_mall","num_user_rated":425,"vicinity":"Ten Square Mall, SH 2, Koyambedu, Chennai","time":180,"week_open_time":["10:00"],"week_close_time":["22:00"],"weekend_open_time":["10:00"],"weekend_close_time":["22:00"]},{"name":"Abirami Mega Mall","latitude":13.0861507,"longitude":80.2480438,"user_rating":3.8,"category":"shopping_mall","num_user_rated":11466,"vicinity":"152, Purasawalkam High Rd, Lumbini Square, Purasaiwakkam, Chennai","time":180,"week_open_time":["10:00"],"week_close_time":["22:00"],"weekend_open_time":["10:00"],"weekend_close_time":["22:00"]},{"name":"Alsa Mall","latitude":13.0686817,"longitude":80.2572632,"user_rating":3.8,"category":"shopping_mall","num_user_rated":5337,"vicinity":"Montieth Road, Egmore, Chennai","time":180,"week_open_time":["10:00"],"week_close_time":["22:00"],"weekend_open_time":["10:00"],"weekend_close_time":["22:00"]},{"name":"Ampa Skywalk","latitude":13.0734711,"longitude":80.2214432,"user_rating":4.1,"category":"shopping_mall","num_user_rated":41097,"vicinity":"No:1, Nelson Manickam Road, 627, Poonamalee High Road, Aminjikarai, Chennai","time":180,"week_open_time":["10:00"],"week_close_time":["22:00"],"weekend_open_time":["10:00"],"weekend_close_time":["22:00"]},{"name":"Bergamo Mall","latitude":13.0607902,"longitude":80.251193,"user_rating":4.1,"category":"shopping_mall","num_user_rated":1498,"vicinity":"5/3, Khadar Navazkhan Road, Thousand Lights West, Thousand Lights, Chennai","time":180,"week_open_time":["10:00"],"week_close_time":["22:00"],"weekend_open_time":["10:00"],"weekend_close_time":["22:00"]},{"name":"BMR Mall","latitude":12.8432745,"longitude":80.2271694,"user_rating":3.7,"category":"shopping_mall","num_user_rated":703,"vicinity":"Navalur","time":180,"week_open_time":["10:00"],"week_close_time":["22:00"],"weekend_open_time":["10:00"],"weekend_close_time":["22:00"]},{"name":"Challa Mall","latitude":13.0398658,"longitude":80.242849,"user_rating":3.6,"category":"shopping_mall","num_user_rated":996,"vicinity":"43, 25, Sir Theagaraya Rd, Parthasarathi Puram, T. Nagar, Chennai","time":180,"week_open_time":["10:00"],"week_close_time":["22:00"],"weekend_open_time":["10:00"],"weekend_close_time":["22:00"]},{"name":"Chandra Metro Mall","latitude":13.046769,"longitude":80.1903895,"user_rating":4,"category":"shopping_mall","num_user_rated":6431,"vicinity":"262, Arcot Rd, Near D Mart, Rajeswari Colony, Virugambakkam, Chennai","time":180,"week_open_time":["10:00"],"week_close_time":["22:00"],"weekend_open_time":["10:00"],"weekend_close_time":["22:00"]},{"name":"Express Avenue","latitude":13.0584546,"longitude":80.2641844,"user_rating":4.4,"category":"shopping_mall","num_user_rated":76793,"vicinity":"17, Pattullos Rd, Express Estate, Thousand Lights, Chennai","time":180,"week_open_time":["10:00"],"week_close_time":["22:00"],"weekend_open_time":["10:00"],"weekend_close_time":["22:00"]},{"name":"Forum Vijaya Mall","latitude":13.0498937,"longitude":80.2095018,"user_rating":4.4,"category":"shopping_mall","num_user_rated":80664,"vicinity":"183, Arcot Rd, Vadapalani, Chennai","time":180,"week_open_time":["10:00"],"week_close_time":["22:00"],"weekend_open_time":["10:00"],"weekend_close_time":["22:00"]},{"name":"Gemini Mall","latitude":13.0460756,"longitude":80.2020055,"user_rating":3.7,"category":"shopping_mall","num_user_rated":3,"vicinity":"Bharani Colony, Vijayaraghavapuram, Saligramam, Chennai","time":180,"week_open_time":["10:00"],"week_close_time":["22:00"],"weekend_open_time":["10:00"],"weekend_close_time":["22:00"]},{"name":"Gold Souk Grande","latitude":12.8767197,"longitude":80.0796273,"user_rating":2.8,"category":"shopping_mall","num_user_rated":80,"vicinity":"Chennai - Theni Hwy, Peerakankaranai","time":180,"week_open_time":["10:00"],"week_close_time":["22:00"],"weekend_open_time":["10:00"],"weekend_close_time":["22:00"]},{"name":"Grand Square","latitude":12.9719922,"longitude":80.2201966,"user_rating":4,"category":"shopping_mall","num_user_rated":25701,"vicinity":"137, Velachery - Tambaram Main Rd, V.O.C Nagar, Doctor Seetaram Nagar, Velachery, Chennai","time":180,"week_open_time":["10:00"],"week_close_time":["22:00"],"weekend_open_time":["10:00"],"weekend_close_time":["22:00"]},{"name":"LooLU SHOPPING CENTRE","latitude":13.0960205,"longitude":80.2910357,"user_rating":4.4,"category":"shopping_mall","num_user_rated":9,"vicinity":"2/3, Mannady Street, Mannady, George Town, Chennai","time":180,"week_open_time":["10:00"],"week_close_time":["22:00"],"weekend_open_time":["10:00"],"weekend_close_time":["22:00"]},{"name":"Phoenix Marketcity","latitude":12.9904673,"longitude":80.2169764,"user_rating":4.5,"category":"shopping_mall","num_user_rated":84947,"vicinity":"142, Velachery Main Rd, Indira Gandhi Nagar, Velachery, Chennai","time":180,"week_open_time":["10:00"],"week_close_time":["22:00"],"weekend_open_time":["10:00"],"weekend_close_time":["22:00"]},{"name":"Ramee Mall","latitude":13.0428226,"longitude":80.2486156,"user_rating":3.8,"category":"shopping_mall","num_user_rated":4708,"vicinity":"365, Annai Salai, Poes Road, Subbarayan Nagar, Teynampet, Chennai, Tamil Nadu 600018, India, Chennai","time":180,"week_open_time":["10:00"],"week_close_time":["22:00"],"weekend_open_time":["10:00"],"weekend_close_time":["22:00"]},{"name":"Shopping Mall","latitude":12.9680037,"longitude":80.1831264,"user_rating":4,"category":"shopping_mall","num_user_rated":1,"vicinity":"Moovarasanpet, Bharathiyar Nagar, Keelkattalai, Chennai","time":180,"week_open_time":["10:00"],"week_close_time":["22:00"],"weekend_open_time":["10:00"],"weekend_close_time":["22:00"]},{"name":"Spectrum The Grand Venus Mall","latitude":13.1122705,"longitude":80.2363842,"user_rating":4,"category":"shopping_mall","num_user_rated":9931,"vicinity":"114, A, 114 B , 3rd floor, Paper Mills Road, Gopal Colony, Perambur, Chennai","time":180,"week_open_time":["10:00"],"week_close_time":["22:00"],"weekend_open_time":["10:00"],"weekend_close_time":["22:00"]},{"name":"Spencer Plaza Mall","latitude":13.0615102,"longitude":80.2614606,"user_rating":3.9,"category":"shopping_mall","num_user_rated":20619,"vicinity":"768-769, Anna Salai, Chennai","time":180,"week_open_time":["10:00"],"week_close_time":["22:00"],"weekend_open_time":["10:00"],"weekend_close_time":["22:00"]},{"name":"THE MARINA MALL","latitude":12.8360379,"longitude":80.2293307,"user_rating":4.3,"category":"shopping_mall","num_user_rated":15223,"vicinity":"Old Mahabalipuram Rd, Egattur","time":180,"week_open_time":["10:00"],"week_close_time":["22:00"],"weekend_open_time":["10:00"],"weekend_close_time":["22:00"]},{"name":"VIVIRA MALL","latitude":12.8504319,"longitude":80.2262178,"user_rating":4,"category":"shopping_mall","num_user_rated":7128,"vicinity":"33, Old Mahabalipuram Rd, Navalur","time":180,"week_open_time":["10:00"],"week_close_time":["22:00"],"weekend_open_time":["10:00"],"weekend_close_time":["22:00"]},{"name":"VR Chennai","latitude":13.0805465,"longitude":80.197132,"user_rating":4.5,"category":"shopping_mall","num_user_rated":45040,"vicinity":"Inner Ring Rd, Thirumangalam, Anna Nagar, Chennai","time":180,"week_open_time":["10:00"],"week_close_time":["22:00"],"weekend_open_time":["10:00"],"weekend_close_time":["22:00"]},{"name":"S Mall","latitude":13.0274084,"longitude":80.2636165,"user_rating":3.8,"category":"shopping_mall","num_user_rated":10,"vicinity":"No.2, 3, Devanathan St, Trustpakkam, Mandaveli, Chennai","time":180,"week_open_time":["10:00"],"week_close_time":["22:00"],"weekend_open_time":["10:00"],"weekend_close_time":["22:00"]},{"name":"Krishna Shopping Mall","latitude":12.9749172,"longitude":80.2441681,"user_rating":4.1,"category":"shopping_mall","num_user_rated":306,"vicinity":"Omr Food Street, No. 10, 2nd Gate, MGR Main Rd, Kandancavadi, Perungudi, Chennai","time":180,"week_open_time":["10:00"],"week_close_time":["22:00"],"weekend_open_time":["10:00"],"weekend_close_time":["22:00"]},{"name":"Yuvaraj Mall","latitude":12.8402931,"longitude":79.7035894,"user_rating":0,"category":"shopping_mall","num_user_rated":0,"vicinity":"Periya, Kanchipuram","time":180,"week_open_time":["10:00"],"week_close_time":["22:00"],"weekend_open_time":["10:00"],"weekend_close_time":["22:00"]},{"name":"Chengalpattu Fort","latitude":12.7005842,"longitude":79.9777909,"user_rating":3.8,"category":"fort","num_user_rated":6,"vicinity":"J C K Nagar, Chengalpattu","time":120,"week_open_time":["09:00"],"week_close_time":["17:00"],"weekend_open_time":["09:00"],"weekend_close_time":["17:00"]},{"name":"Chennai Fort MRTS","latitude":13.0832203,"longitude":80.2827773,"user_rating":3.8,"category":"fort","num_user_rated":9,"vicinity":"Muthuswamy Rd, Park Town, Chennai","time":120,"week_open_time":["09:00"],"week_close_time":["17:00"],"weekend_open_time":["09:00"],"weekend_close_time":["17:00"]},{"name":"Fashion Fort","latitude":12.9896011,"longitude":80.2192562,"user_rating":5,"category":"fort","num_user_rated":1,"vicinity":"Janakpuri 1st St, TN Police Housing Colony, Velachery, Chennai","time":120,"week_open_time":["09:00"],"week_close_time":["17:00"],"weekend_open_time":["09:00"],"weekend_close_time":["17:00"]},{"name":"Fort Indraprastha","latitude":12.9906001,"longitude":80.2594695,"user_rating":4.2,"category":"fort","num_user_rated":52,"vicinity":"45, Kalakshetra Rd, Sriram Nagar, Radhakrishnan Nagar, Thiruvanmiyur, Chennai","time":120,"week_open_time":["09:00"],"week_close_time":["17:00"],"weekend_open_time":["09:00"],"weekend_close_time":["17:00"]},{"name":"Fort St GEORGE Ramparts","latitude":13.0822783,"longitude":80.2856072,"user_rating":0,"category":"fort","num_user_rated":0,"vicinity":"Fort St George, Chennai","time":120,"week_open_time":["09:00"],"week_close_time":["17:00"],"weekend_open_time":["09:00"],"weekend_close_time":["17:00"]},{"name":"Fort St. George","latitude":13.0796439,"longitude":80.2874492,"user_rating":4.2,"category":"fort","num_user_rated":3858,"vicinity":"Rajaji Rd, near Legislature and Secretariat, Fort St George, Chennai","time":120,"week_open_time":["09:00"],"week_close_time":["17:00"],"weekend_open_time":["09:00"],"weekend_close_time":["17:00"]},{"name":"Kings fort mansion","latitude":13.031819,"longitude":80.1420094,"user_rating":3.5,"category":"fort","num_user_rated":17,"vicinity":"A5 gsr garden thelliyar agaram, Porur, Chennai","time":120,"week_open_time":["09:00"],"week_close_time":["17:00"],"weekend_open_time":["09:00"],"weekend_close_time":["17:00"]},{"name":"Advent Christian Church Sholinganallur","latitude":12.8895107,"longitude":80.2307997,"user_rating":4.3,"category":"church","num_user_rated":22,"vicinity":"Sathyavani Muthu St, Sholinganallur, Chennai","time":60,"week_open_time":["07:00"],"week_close_time":["19:00"],"weekend_open_time":["07:00"],"weekend_close_time":["19:00"]},{"name":"AFC Church","latitude":13.0787758,"longitude":80.1777729,"user_rating":3,"category":"church","num_user_rated":2,"vicinity":"No 1, 37, Church Road, Panneer Nagar, Mogappair East, Chennai","time":60,"week_open_time":["07:00"],"week_close_time":["19:00"],"weekend_open_time":["07:00"],"weekend_close_time":["19:00"]},{"name":"Apostolic Faith Church","latitude":13.0804599,"longitude":80.1799436,"user_rating":4.5,"category":"church","num_user_rated":76,"vicinity":"No 1, 37, Church Road, Panneer Nagar, Mogappair East, Mogappair, Chennai","time":60,"week_open_time":["07:00"],"week_close_time":["19:00"],"weekend_open_time":["07:00"],"weekend_close_time":["19:00"]},{"name":"Ascension Church","latitude":13.068474,"longitude":80.2229408,"user_rating":4.5,"category":"church","num_user_rated":272,"vicinity":"23, 4th St, Railway Colony, Aminjikarai, Chennai","time":60,"week_open_time":["07:00"],"week_close_time":["19:00"],"weekend_open_time":["07:00"],"weekend_close_time":["19:00"]},{"name":"Christ Church","latitude":13.06605,"longitude":80.269964,"user_rating":4.3,"category":"church","num_user_rated":16,"vicinity":"no 55, 56, Anna Salai, Border Thottam, Padupakkam, Triplicane, Chennai","time":60,"week_open_time":["07:00"],"week_close_time":["19:00"],"weekend_open_time":["07:00"],"weekend_close_time":["19:00"]},{"name":"Church Of The Good Shepherd (CSI)","latitude":13.0449625,"longitude":80.2605762,"user_rating":4.5,"category":"church","num_user_rated":187,"vicinity":"67, Dr Radha Krishnan Salai, CIT Colony, Mylapore, Chennai","time":60,"week_open_time":["07:00"],"week_close_time":["19:00"],"weekend_open_time":["07:00"],"weekend_close_time":["19:00"]},{"name":"CSI Church Of Saint John The Baptist","latitude":13.0755799,"longitude":80.2634291,"user_rating":4.4,"category":"church","num_user_rated":46,"vicinity":"No.497, Pantheon Road, Egmore, Chennai","time":60,"week_open_time":["07:00"],"week_close_time":["19:00"],"weekend_open_time":["07:00"],"weekend_close_time":["19:00"]},{"name":"CSI Emmanuel Church","latitude":13.0926853,"longitude":80.203083,"user_rating":4.6,"category":"church","num_user_rated":55,"vicinity":"35, Church Street, Anna Nagar West, Thangam Colony, Anna Nagar, Chennai","time":60,"week_open_time":["07:00"],"week_close_time":["19:00"],"weekend_open_time":["07:00"],"weekend_close_time":["19:00"]},{"name":"CSI St. Pauls Church","latitude":12.9128308,"longitude":80.0704274,"user_rating":3.9,"category":"church","num_user_rated":54,"vicinity":"Mudichur Rd, Mudichur","time":60,"week_open_time":["07:00"],"week_close_time":["19:00"],"weekend_open_time":["07:00"],"weekend_close_time":["19:00"]},{"name":"CSI Wesley English Church","latitude":13.0075987,"longitude":80.1956597,"user_rating":4.6,"category":"church","num_user_rated":115,"vicinity":"4/2, St. Patricks Church Road, St. Thomas Mount, Chennai","time":60,"week_open_time":["07:00"],"week_close_time":["19:00"],"weekend_open_time":["07:00"],"weekend_close_time":["19:00"]},{"name":"Emmanuel Methodist Church","latitude":13.0866534,"longitude":80.2596398,"user_rating":4.6,"category":"church","num_user_rated":162,"vicinity":"48-50, Jeremiah Rd, Vepery, Periyamet, Chennai","time":60,"week_open_time":["07:00"],"week_close_time":["19:00"],"weekend_open_time":["07:00"],"weekend_close_time":["19:00"]},{"name":"Faith Christian Church","latitude":13.065849,"longitude":80.1885814,"user_rating":4.4,"category":"church","num_user_rated":25,"vicinity":"No.2 A, Madha Koil Street, Nerkundrum Main Rd, Nerkundram, Chennai","time":60,"week_open_time":["07:00"],"week_close_time":["19:00"],"weekend_open_time":["07:00"],"weekend_close_time":["19:00"]},{"name":"Holy Cross Church","latitude":13.0332477,"longitude":80.2396028,"user_rating":4.6,"category":"church","num_user_rated":97,"vicinity":"90/24, Venkatanarayana Rd, Parthasarathi Puram, T. Nagar, Chennai","time":60,"week_open_time":["07:00"],"week_close_time":["19:00"],"weekend_open_time":["07:00"],"weekend_close_time":["19:00"]},{"name":"Holy trinity church","latitude":13.076042,"longitude":80.1834831,"user_rating":4.5,"category":"church","num_user_rated":150,"vicinity":"Golden George Nagar, Nerkundram, Chennai","time":60,"week_open_time":["07:00"],"week_close_time":["19:00"],"weekend_open_time":["07:00"],"weekend_close_time":["19:00"]},{"name":"Hope AG Church","latitude":12.9270059,"longitude":80.1991174,"user_rating":4.6,"category":"church","num_user_rated":130,"vicinity":"1, Velachery Road, Medavakkam, Chennai","time":60,"week_open_time":["07:00"],"week_close_time":["19:00"],"weekend_open_time":["07:00"],"weekend_close_time":["19:00"]},{"name":"Infant Jesus Church","latitude":12.972995,"longitude":80.060032,"user_rating":4.3,"category":"church","num_user_rated":10,"vicinity":"Kuzandaiyesu Nagar Church Street, Periyar Colony, Nandambakkam, Sirukalathur","time":60,"week_open_time":["07:00"],"week_close_time":["19:00"],"weekend_open_time":["07:00"],"weekend_close_time":["19:00"]},{"name":"Our Lady of Good Health Church","latitude":12.8908046,"longitude":80.1949909,"user_rating":4.8,"category":"church","num_user_rated":16,"vicinity":"Perumbakkam, Chennai","time":60,"week_open_time":["07:00"],"week_close_time":["19:00"],"weekend_open_time":["07:00"],"weekend_close_time":["19:00"]},{"name":"Our Lady of Light Shrine (Luz Church)","latitude":13.038147,"longitude":80.2624346,"user_rating":4.7,"category":"church","num_user_rated":554,"vicinity":"156, Luz Church Rd, CIT Colony, Mylapore, Chennai","time":60,"week_open_time":["07:00"],"week_close_time":["19:00"],"weekend_open_time":["07:00"],"weekend_close_time":["19:00"]},{"name":"OUR SAVIOUR CHURCH - OSC","latitude":13.0370465,"longitude":80.1228336,"user_rating":5,"category":"church","num_user_rated":11,"vicinity":"OSC CHURCH, No. 35, 3rd west OSC church street, Chendurpuram, Indira Nagar, Kattupakkam, Chennai","time":60,"week_open_time":["07:00"],"week_close_time":["19:00"],"weekend_open_time":["07:00"],"weekend_close_time":["19:00"]},{"name":"Pallavaram Church of CHRIST","latitude":12.9677284,"longitude":80.1480046,"user_rating":3.5,"category":"church","num_user_rated":4,"vicinity":"111, Mariamman Koil St, Periyar Nagar, Pallavaram, Chennai","time":60,"week_open_time":["07:00"],"week_close_time":["19:00"],"weekend_open_time":["07:00"],"weekend_close_time":["19:00"]},{"name":"Rose of Sharon AG church","latitude":13.055462,"longitude":80.2298854,"user_rating":4.6,"category":"church","num_user_rated":175,"vicinity":"18, Zachariah Colony 2nd St, Minor Trustpuram, Choolaimedu, Chennai","time":60,"week_open_time":["07:00"],"week_close_time":["19:00"],"weekend_open_time":["07:00"],"weekend_close_time":["19:00"]},{"name":"Santhome Cathedral Basilica","latitude":13.033569,"longitude":80.277822,"user_rating":4.7,"category":"church","num_user_rated":9117,"vicinity":"38, Santhome High Rd, Dummingkuppam, Mylapore, Chennai","time":60,"week_open_time":["07:00"],"week_close_time":["19:00"],"weekend_open_time":["07:00"],"weekend_close_time":["19:00"]},{"name":"St Mathews CSI Church","latitude":13.0343407,"longitude":80.1535647,"user_rating":4.7,"category":"church","num_user_rated":81,"vicinity":"8, CSI Church St, Jaya Nagar, Porur, Chennai","time":60,"week_open_time":["07:00"],"week_close_time":["19:00"],"weekend_open_time":["07:00"],"weekend_close_time":["19:00"]},{"name":"St. Andrews Church (The Kirk)","latitude":13.0795797,"longitude":80.2640622,"user_rating":4.7,"category":"church","num_user_rated":367,"vicinity":"Opp Daily Thanthi, #37, Poonamallee High Rd, Egmore, Chennai","time":60,"week_open_time":["07:00"],"week_close_time":["19:00"],"weekend_open_time":["07:00"],"weekend_close_time":["19:00"]},{"name":"St. Antonys Church","latitude":12.8674496,"longitude":80.064205,"user_rating":4.5,"category":"church","num_user_rated":68,"vicinity":"RC Church Street, PO, Velmurugan Nagar, Annai Anjugam Nagar, Urapakkam, West","time":60,"week_open_time":["07:00"],"week_close_time":["19:00"],"weekend_open_time":["07:00"],"weekend_close_time":["19:00"]},{"name":"St. Pius Church","latitude":12.9639193,"longitude":80.2442127,"user_rating":4.6,"category":"church","num_user_rated":149,"vicinity":"Church Rd, Ramappa Nagar, Kandancavadi, Perungudi, Chennai","time":60,"week_open_time":["07:00"],"week_close_time":["19:00"],"weekend_open_time":["07:00"],"weekend_close_time":["19:00"]},{"name":"St. Thomas Evangelical Church of India","latitude":13.079875,"longitude":80.197834,"user_rating":4.6,"category":"church","num_user_rated":26,"vicinity":"36, Pillaiyar Koil St, Anna Nagar West, Koyambedu, Chennai","time":60,"week_open_time":["07:00"],"week_close_time":["19:00"],"weekend_open_time":["07:00"],"weekend_close_time":["19:00"]},{"name":"St. Thomas Garrison Church","latitude":13.0024034,"longitude":80.1961558,"user_rating":4.6,"category":"church","num_user_rated":304,"vicinity":"#1, Great Southern Trunk Rd, Mathas Nagar, St.Thomas Mount","time":60,"week_open_time":["07:00"],"week_close_time":["19:00"],"weekend_open_time":["07:00"],"weekend_close_time":["19:00"]},{"name":"The Church of Jesus Christ of Latter-Day Saints","latitude":13.0148364,"longitude":80.2264059,"user_rating":4.5,"category":"church","num_user_rated":84,"vicinity":"Old No. 8, New No. 23, Taluk Office Rd, Little Mount, Saidapet, Chennai","time":60,"week_open_time":["07:00"],"week_close_time":["19:00"],"weekend_open_time":["07:00"],"weekend_close_time":["19:00"]},{"name":"The Church Of Jesus Christ Of Latter-Days Saints","latitude":13.0850726,"longitude":80.2127487,"user_rating":5,"category":"church","num_user_rated":19,"vicinity":"74/223, 2nd Ave, Block Y, Y Block, Anna Nagar, Chennai","time":60,"week_open_time":["07:00"],"week_close_time":["19:00"],"weekend_open_time":["07:00"],"weekend_close_time":["19:00"]},{"name":"ECR Beach","latitude":12.8918404,"longitude":80.2536424,"user_rating":4.4,"category":"beach","num_user_rated":1927,"vicinity":"Sea Shell Ave, Akkarai, Panaiyur, Chennai","time":60,"week_open_time":["10:00"],"week_close_time":["22:00"],"weekend_open_time":["10:00"],"weekend_close_time":["22:00"]},{"name":"Edward Elliots Beach","latitude":12.9988631,"longitude":80.271761,"user_rating":4.4,"category":"beach","num_user_rated":3321,"vicinity":"Edward Elliots Beach, Tamil Nadu, India","time":60,"week_open_time":["10:00"],"week_close_time":["22:00"],"weekend_open_time":["10:00"],"weekend_close_time":["22:00"]},{"name":"Gandhi Beach","latitude":13.0401803,"longitude":80.2812613,"user_rating":4.4,"category":"beach","num_user_rated":246,"vicinity":"Gandhi Beach, India","time":60,"week_open_time":["10:00"],"week_close_time":["22:00"],"weekend_open_time":["10:00"],"weekend_close_time":["22:00"]},{"name":"Graveside Beach","latitude":12.7550862,"longitude":80.2463065,"user_rating":4.3,"category":"beach","num_user_rated":116,"vicinity":"Kanchipuram","time":60,"week_open_time":["10:00"],"week_close_time":["22:00"],"weekend_open_time":["10:00"],"weekend_close_time":["22:00"]},{"name":"Kalpakkam Beach","latitude":12.4997247,"longitude":80.1601553,"user_rating":4.3,"category":"beach","num_user_rated":106,"vicinity":"Mosque Rd, Meiyur","time":60,"week_open_time":["10:00"],"week_close_time":["22:00"],"weekend_open_time":["10:00"],"weekend_close_time":["22:00"]},{"name":"Mahabalipuram Beach","latitude":12.6121234,"longitude":80.1969215,"user_rating":4.4,"category":"beach","num_user_rated":2405,"vicinity":"Mahabalipuram Beach, Tamil Nadu 603104, India","time":60,"week_open_time":["10:00"],"week_close_time":["22:00"],"weekend_open_time":["10:00"],"weekend_close_time":["22:00"]},{"name":"Marina Beach Photo Spot","latitude":13.0551109,"longitude":80.2846086,"user_rating":4.4,"category":"beach","num_user_rated":1576,"vicinity":"Marina Beach, Triplicane, Chennai","time":60,"week_open_time":["10:00"],"week_close_time":["22:00"],"weekend_open_time":["10:00"],"weekend_close_time":["22:00"]},{"name":"Olive Beach","latitude":12.9254561,"longitude":80.2580138,"user_rating":4.2,"category":"beach","num_user_rated":202,"vicinity":"Chennai","time":60,"week_open_time":["10:00"],"week_close_time":["22:00"],"weekend_open_time":["10:00"],"weekend_close_time":["22:00"]},{"name":"Pallava Beach","latitude":12.6344609,"longitude":80.2016286,"user_rating":4.4,"category":"beach","num_user_rated":28,"vicinity":"Pallava Beach, Tamil Nadu 603104, India","time":60,"week_open_time":["10:00"],"week_close_time":["22:00"],"weekend_open_time":["10:00"],"weekend_close_time":["22:00"]},{"name":"Panaiyur Beach ECR","latitude":12.8827778,"longitude":80.2522222,"user_rating":4.4,"category":"beach","num_user_rated":1321,"vicinity":"3/338, Rajaji Road, Panaiyur, Chennai","time":60,"week_open_time":["10:00"],"week_close_time":["22:00"],"weekend_open_time":["10:00"],"weekend_close_time":["22:00"]},{"name":"Sai Beach Resort","latitude":12.699315,"longitude":80.2255134,"user_rating":4.1,"category":"beach","num_user_rated":7,"vicinity":"Nemmeli","time":60,"week_open_time":["10:00"],"week_close_time":["22:00"],"weekend_open_time":["10:00"],"weekend_close_time":["22:00"]},{"name":"Thiruvalluvar Nagar Beach","latitude":12.9736122,"longitude":80.2664556,"user_rating":4.4,"category":"beach","num_user_rated":599,"vicinity":"Chennai","time":60,"week_open_time":["10:00"],"week_close_time":["22:00"],"weekend_open_time":["10:00"],"weekend_close_time":["22:00"]},{"name":"Thiruvanmiyur Beach","latitude":12.9756151,"longitude":80.2669676,"user_rating":4.5,"category":"beach","num_user_rated":21586,"vicinity":"Water Land Dr Rd, Valmiki Nagar, Thiruvalluvar Nagar, Lakshman Perumal Nagar, Chennai","time":60,"week_open_time":["10:00"],"week_close_time":["22:00"],"weekend_open_time":["10:00"],"weekend_close_time":["22:00"]},{"name":"Tiruvottiyur Beach","latitude":13.169452,"longitude":80.3114742,"user_rating":4,"category":"beach","num_user_rated":56,"vicinity":"Tiruvottiyur Beach, Tamil Nadu 600019, India","time":60,"week_open_time":["10:00"],"week_close_time":["22:00"],"weekend_open_time":["10:00"],"weekend_close_time":["22:00"]},{"name":"Uthandi Beach","latitude":12.8713261,"longitude":80.2507762,"user_rating":4.4,"category":"beach","num_user_rated":205,"vicinity":"Chennai","time":60,"week_open_time":["10:00"],"week_close_time":["22:00"],"weekend_open_time":["10:00"],"weekend_close_time":["22:00"]},{"name":"Beautiful Beach","latitude":12.9214993,"longitude":80.2568178,"user_rating":4.2,"category":"beach","num_user_rated":78,"vicinity":"Injambakkam, Harichandra 3rd Cross St, Cholamandal Artists Village, Injambakkam, Chennai","time":60,"week_open_time":["10:00"],"week_close_time":["22:00"],"weekend_open_time":["10:00"],"weekend_close_time":["22:00"]},{"name":"Enfour Beach","latitude":13.1326365,"longitude":80.3017719,"user_rating":4.9,"category":"beach","num_user_rated":11,"vicinity":"Fishing Harbour, Tondiarpet, Chennai","time":60,"week_open_time":["10:00"],"week_close_time":["22:00"],"weekend_open_time":["10:00"],"weekend_close_time":["22:00"]},{"name":"Covelong Beach","latitude":12.7870019,"longitude":80.2504447,"user_rating":3.9,"category":"beach","num_user_rated":33,"vicinity":"Covelong, Chennai","time":60,"week_open_time":["10:00"],"week_close_time":["22:00"],"weekend_open_time":["10:00"],"weekend_close_time":["22:00"]},{"name":"Adventure Aero Sports Association","latitude":12.963583,"longitude":80.261626,"user_rating":5,"category":"adventure&game","num_user_rated":2,"vicinity":"NO.305, Palkalai Nagar, Palavakkam","time":120,"week_open_time":["11:00"],"week_close_time":["23:00"],"weekend_open_time":["11:00"],"weekend_close_time":["23:00"]},{"name":"Adventure Aero Sports Association","latitude":12.9637439,"longitude":80.2617798,"user_rating":4.3,"category":"adventure&game","num_user_rated":40,"vicinity":"No. 305, 8th Cross St, Palkalai Nagar, Palavakkam, Chennai","time":120,"week_open_time":["11:00"],"week_close_time":["23:00"],"weekend_open_time":["11:00"],"weekend_close_time":["23:00"]},{"name":"Adventures India","latitude":13.0536743,"longitude":80.2339281,"user_rating":4,"category":"adventure&game","num_user_rated":2,"vicinity":"151, Kodambakkam High Rd, Parthsarathy Puram, T. Nagar, Chennai","time":120,"week_open_time":["11:00"],"week_close_time":["23:00"],"weekend_open_time":["11:00"],"weekend_close_time":["23:00"]},{"name":"Apache adventure camp Head office-forest camping,tent camp,adventure tour camp in chennai","latitude":13.0336742,"longitude":80.2296273,"user_rating":4.2,"category":"adventure&game","num_user_rated":9,"vicinity":"#2, Police Quarters Lane, T. Nagar, Chennai","time":120,"week_open_time":["11:00"],"week_close_time":["23:00"],"weekend_open_time":["11:00"],"weekend_close_time":["23:00"]},{"name":"Beach Adventures","latitude":12.6839933,"longitude":80.2156624,"user_rating":4,"category":"adventure&game","num_user_rated":85,"vicinity":"169/17, ECR, 5km from Crocodile Park, District-Chennai, Pattipulam","time":120,"week_open_time":["11:00"],"week_close_time":["23:00"],"weekend_open_time":["11:00"],"weekend_close_time":["23:00"]},{"name":"Chennai Adventure Club","latitude":13.0658532,"longitude":80.2102307,"user_rating":4.9,"category":"adventure&game","num_user_rated":20,"vicinity":"2/16 , 1st Floor, Ambalavanar St, Arumbakkam, Chennai","time":120,"week_open_time":["11:00"],"week_close_time":["23:00"],"weekend_open_time":["11:00"],"weekend_close_time":["23:00"]},{"name":"Freeing India","latitude":13.0552914,"longitude":80.2498353,"user_rating":4.3,"category":"adventure&game","num_user_rated":758,"vicinity":"123, Ispahani Centre, Nungambakkam High Rd, Chennai","time":120,"week_open_time":["11:00"],"week_close_time":["23:00"],"weekend_open_time":["11:00"],"weekend_close_time":["23:00"]},{"name":"Freeing India","latitude":12.99624,"longitude":80.268823,"user_rating":4.4,"category":"adventure&game","num_user_rated":485,"vicinity":"E21, 16th Cross St, GOCHS Colony, Besant Nagar, Chennai","time":120,"week_open_time":["11:00"],"week_close_time":["23:00"],"weekend_open_time":["11:00"],"weekend_close_time":["23:00"]},{"name":"Fun & Bowling","latitude":12.972018,"longitude":80.220107,"user_rating":3.7,"category":"adventure&game","num_user_rated":493,"vicinity":"No.137 Grand Mall 3rd Floor, V.O.C Nagar, Doctor Seetaram Nagar, Velachery, Chennai","time":120,"week_open_time":["11:00"],"week_close_time":["23:00"],"weekend_open_time":["11:00"],"weekend_close_time":["23:00"]},{"name":"Fun 2 Play","latitude":12.9213642,"longitude":80.0924279,"user_rating":4,"category":"adventure&game","num_user_rated":37,"vicinity":"253/1C2B, First floor SSRComplex, Bharathi Nagar, Mudichur Rd, Tambaram West","time":120,"week_open_time":["11:00"],"week_close_time":["23:00"],"weekend_open_time":["11:00"],"weekend_close_time":["23:00"]},{"name":"Fun Park A/c","latitude":13.1253228,"longitude":79.9109969,"user_rating":4.3,"category":"adventure&game","num_user_rated":4,"vicinity":"149/1, JN Rd, Hariram Nagar, Poonga Nagar, Kakkalur","time":120,"week_open_time":["11:00"],"week_close_time":["23:00"],"weekend_open_time":["11:00"],"weekend_close_time":["23:00"]},{"name":"Fun Ulagam","latitude":12.9242093,"longitude":80.1143513,"user_rating":3.6,"category":"adventure&game","num_user_rated":232,"vicinity":"3D,Anop Building, Mudichur Road, IOB, West Tambaram, opposite LNC Textiles, Chennai","time":120,"week_open_time":["11:00"],"week_close_time":["23:00"],"weekend_open_time":["11:00"],"weekend_close_time":["23:00"]},{"name":"Heaven Explorer","latitude":13.1359352,"longitude":80.156315,"user_rating":5,"category":"adventure&game","num_user_rated":4,"vicinity":"5, 1, Ayirankatha Amman Nagar, Oragadam, Chennai","time":120,"week_open_time":["11:00"],"week_close_time":["23:00"],"weekend_open_time":["11:00"],"weekend_close_time":["23:00"]},{"name":"Kart Attack","latitude":12.8965339,"longitude":80.2459793,"user_rating":4.1,"category":"adventure&game","num_user_rated":1217,"vicinity":"3, Palm Garden Rd, Akkarai, Injambakkam, Chennai","time":120,"week_open_time":["11:00"],"week_close_time":["23:00"],"weekend_open_time":["11:00"],"weekend_close_time":["23:00"]},{"name":"Kartwheel - Kids Play & Party Zone","latitude":13.0025514,"longitude":80.2552249,"user_rating":4.4,"category":"adventure&game","num_user_rated":944,"vicinity":"New No.21, Old No.9 Balaram Road, Baktavatsalm Nagar, Adyar, Chennai","time":120,"week_open_time":["11:00"],"week_close_time":["23:00"],"weekend_open_time":["11:00"],"weekend_close_time":["23:00"]},{"name":"Kiddo Castle - Kids Play & Party Zone","latitude":12.9306847,"longitude":80.2315297,"user_rating":4.2,"category":"adventure&game","num_user_rated":375,"vicinity":"5, Land Mark:, State Highway 49A, 394, Old Mahabalipuram Rd, near Cognizant Technology Solutions, Oggiyamduraipakkam","time":120,"week_open_time":["11:00"],"week_close_time":["23:00"],"weekend_open_time":["11:00"],"weekend_close_time":["23:00"]},{"name":"Kidoos fun park","latitude":12.8497859,"longitude":80.2261861,"user_rating":4.1,"category":"adventure&game","num_user_rated":77,"vicinity":"OMR food street, near AGS cinemas, Chennai, Navalur","time":120,"week_open_time":["11:00"],"week_close_time":["23:00"],"weekend_open_time":["11:00"],"weekend_close_time":["23:00"]},{"name":"MAGIC Thrills & Adventures (P) Limited","latitude":12.7090085,"longitude":80.2248995,"user_rating":4.2,"category":"adventure&game","num_user_rated":33,"vicinity":"#451A, East Coast Road, Nemmeli Village, Thiruporur","time":120,"week_open_time":["11:00"],"week_close_time":["23:00"],"weekend_open_time":["11:00"],"weekend_close_time":["23:00"]},{"name":"MOOSAA LAND","latitude":12.8492316,"longitude":80.2258376,"user_rating":4,"category":"adventure&game","num_user_rated":171,"vicinity":"92, Old Mahabalipuram Rd, Thirumalai Nagar Annexe, Navalur","time":120,"week_open_time":["11:00"],"week_close_time":["23:00"],"weekend_open_time":["11:00"],"weekend_close_time":["23:00"]},{"name":"Moosaland","latitude":13.0846146,"longitude":80.1698676,"user_rating":4.3,"category":"adventure&game","num_user_rated":38,"vicinity":"1/C1, Kamarajar Salai, Mogappair West, Padmavati Nagar, Virugambakkam, Chennai","time":120,"week_open_time":["11:00"],"week_close_time":["23:00"],"weekend_open_time":["11:00"],"weekend_close_time":["23:00"]},{"name":"Mudstacle Run","latitude":12.8725495,"longitude":80.199568,"user_rating":3.6,"category":"adventure&game","num_user_rated":5,"vicinity":"Karanai Main Rd, Ottiambakkam, Chennai","time":120,"week_open_time":["11:00"],"week_close_time":["23:00"],"weekend_open_time":["11:00"],"weekend_close_time":["23:00"]},{"name":"Mystery Rooms Chennai","latitude":13.0677954,"longitude":80.2472212,"user_rating":4.5,"category":"adventure&game","num_user_rated":759,"vicinity":"#24, 2nd Flr (Above Kora), BBCL Magnum, College Rd, Nungambakkam, Chennai","time":120,"week_open_time":["11:00"],"week_close_time":["23:00"],"weekend_open_time":["11:00"],"weekend_close_time":["23:00"]},{"name":"Off Road Sports","latitude":12.6816312,"longitude":80.2146213,"user_rating":3.8,"category":"adventure&game","num_user_rated":348,"vicinity":"168/3D, Pattipulam, East Cost Road, 2kms from Dolphin city, Chennai","time":120,"week_open_time":["11:00"],"week_close_time":["23:00"],"weekend_open_time":["11:00"],"weekend_close_time":["23:00"]},{"name":"Planet Adventure Paintball","latitude":12.9727277,"longitude":80.2659384,"user_rating":3.8,"category":"adventure&game","num_user_rated":437,"vicinity":"Shri, Krishna Enclave, No.8, Water Land Dr Rd, Kottivakkam, Chennai","time":120,"week_open_time":["11:00"],"week_close_time":["23:00"],"weekend_open_time":["11:00"],"weekend_close_time":["23:00"]},{"name":"Planet Adventures Jus Play","latitude":12.9723688,"longitude":80.2656251,"user_rating":4,"category":"adventure&game","num_user_rated":1,"vicinity":"No.8, Shri Krishna Enclave, Kottivakkam Beach, Near Bella Ciao, Water Land Dr Rd, Kaveri Nagar, Chennai","time":120,"week_open_time":["11:00"],"week_close_time":["23:00"],"weekend_open_time":["11:00"],"weekend_close_time":["23:00"]},{"name":"Pleeease Mom","latitude":13.0586471,"longitude":80.2646672,"user_rating":3.6,"category":"adventure&game","num_user_rated":68,"vicinity":"2, Club House Rd, Express Estate, Royapettah, Chennai","time":120,"week_open_time":["11:00"],"week_close_time":["23:00"],"weekend_open_time":["11:00"],"weekend_close_time":["23:00"]},{"name":"Snow Kingdom (Chennai)","latitude":12.9131665,"longitude":80.25118,"user_rating":4.6,"category":"adventure&game","num_user_rated":16160,"vicinity":"SH 49, next to VGP Universal Kingdom, Injambakkam, Chennai","time":120,"week_open_time":["11:00"],"week_close_time":["23:00"],"weekend_open_time":["11:00"],"weekend_close_time":["23:00"]},{"name":"Wild Tribe Ranch","latitude":12.7339119,"longitude":80.2348233,"user_rating":3.6,"category":"adventure&game","num_user_rated":401,"vicinity":"Nemmeli","time":120,"week_open_time":["11:00"],"week_close_time":["23:00"],"weekend_open_time":["11:00"],"weekend_close_time":["23:00"]},{"name":"Blue Lagoon Beach Resort","latitude":12.941559,"longitude":80.255757,"user_rating":3.9,"category":"amusement_park","num_user_rated":4165,"vicinity":"5/72, East Coast Road, Raja Nagar, Neelankarai","time":360,"week_open_time":["10:00"],"week_close_time":["18:00"],"weekend_open_time":["10:00"],"weekend_close_time":["18:00"]},{"name":"Kishkinta","latitude":12.9366488,"longitude":80.0786805,"user_rating":3.8,"category":"amusement_park","num_user_rated":4822,"vicinity":"Near, 82, Varadarajapuram, Darkas Ward - II, Tambaram, Chennai","time":360,"week_open_time":["10:00"],"week_close_time":["18:00"],"weekend_open_time":["10:00"],"weekend_close_time":["18:00"]},{"name":"MGM Dizzee World","latitude":12.8257501,"longitude":80.2442984,"user_rating":4,"category":"amusement_park","num_user_rated":13411,"vicinity":"1/74, State Highway 49, Muthukadu","time":360,"week_open_time":["10:00"],"week_close_time":["18:00"],"weekend_open_time":["10:00"],"weekend_close_time":["18:00"]},{"name":"Queensland Amusement Park","latitude":13.0300355,"longitude":80.0276134,"user_rating":4.1,"category":"amusement_park","num_user_rated":18647,"vicinity":"Chennai-Bengaluru Highway, Palanjur, Sembarambakkam, Chennai","time":360,"week_open_time":["10:00"],"week_close_time":["18:00"],"weekend_open_time":["10:00"],"weekend_close_time":["18:00"]},{"name":"VGP Universal Kingdom","latitude":12.914221,"longitude":80.250524,"user_rating":4,"category":"amusement_park","num_user_rated":20361,"vicinity":"State Highway 49, Injambakkam, Chennai","time":360,"week_open_time":["10:00"],"week_close_time":["18:00"],"weekend_open_time":["10:00"],"weekend_close_time":["18:00"]},{"name":"Monkey Monk","latitude":12.6816423,"longitude":80.2192844,"user_rating":4,"category":"amusement_park","num_user_rated":265,"vicinity":"No. 109, ECR Road, Pattipulam, Village, Chennai","time":360,"week_open_time":["10:00"],"week_close_time":["18:00"],"weekend_open_time":["10:00"],"weekend_close_time":["18:00"]},{"name":"Veera Aqua","latitude":13.1913934,"longitude":80.3127677,"user_rating":3.9,"category":"amusement_park","num_user_rated":25,"vicinity":"115, Ennore Express Road, Netaji Nagar West, Ennore","time":360,"week_open_time":["10:00"],"week_close_time":["18:00"],"weekend_open_time":["10:00"],"weekend_close_time":["18:00"]},{"name":"Tirusula Nathar Temple Tank","latitude":12.9721803,"longitude":80.1668934,"user_rating":4,"category":"amusement_park","num_user_rated":45,"vicinity":"Harbour quaters, Tirusulam, Chennai","time":360,"week_open_time":["10:00"],"week_close_time":["18:00"],"weekend_open_time":["10:00"],"weekend_close_time":["18:00"]},{"name":"Dolphin City","latitude":12.7010925,"longitude":80.222357,"user_rating":2.9,"category":"amusement_park","num_user_rated":33,"vicinity":"State Highway 49, Nemmeli","time":360,"week_open_time":["10:00"],"week_close_time":["18:00"],"weekend_open_time":["10:00"],"weekend_close_time":["18:00"]},{"name":"Wonderla amusement park","latitude":12.735753,"longitude":80.1640998,"user_rating":3.7,"category":"amusement_park","num_user_rated":35,"vicinity":"Unnamed Road, Illalur RF, Illalur","time":360,"week_open_time":["10:00"],"week_close_time":["18:00"],"weekend_open_time":["10:00"],"weekend_close_time":["18:00"]},{"name":"Chetpet ecopark boat house","latitude":13.0751674,"longitude":80.2407503,"user_rating":0,"category":"amusement_park","num_user_rated":0,"vicinity":"New Bupathy Nagar","time":360,"week_open_time":["10:00"],"week_close_time":["18:00"],"weekend_open_time":["10:00"],"weekend_close_time":["18:00"]},{"name":"Perandur Lake","latitude":13.3164959,"longitude":79.939431,"user_rating":0,"category":"amusement_park","num_user_rated":0,"vicinity":"Perandur","time":360,"week_open_time":["10:00"],"week_close_time":["18:00"],"weekend_open_time":["10:00"],"weekend_close_time":["18:00"]},{"name":"Periya Kulam","latitude":13.3027012,"longitude":79.9242792,"user_rating":0,"category":"amusement_park","num_user_rated":0,"vicinity":"Mambakkam","time":360,"week_open_time":["10:00"],"week_close_time":["18:00"],"weekend_open_time":["10:00"],"weekend_close_time":["18:00"]},{"name":"Sathyam Cinemas","latitude":13.0553551,"longitude":80.2579667,"user_rating":4.6,"category":"movie_theater","num_user_rated":46861,"vicinity":"8, Thiruvika Road, Royapettah, Chennai","time":180,"week_open_time":["09:00"],"week_close_time":["22:30"],"weekend_open_time":["09:00"],"weekend_close_time":["22:30"]},{"name":"Kasi Theatre","latitude":13.029642,"longitude":80.2087,"user_rating":4.1,"category":"movie_theater","num_user_rated":10489,"vicinity":"No:91, 92, Inner Ring Road, Ashok Nagar, Chennai","time":180,"week_open_time":["09:00"],"week_close_time":["22:30"],"weekend_open_time":["09:00"],"weekend_close_time":["22:30"]},{"name":"AGS Cinemas","latitude":12.8505011,"longitude":80.2256851,"user_rating":4.1,"category":"movie_theater","num_user_rated":20479,"vicinity":"Coromandel Plaza, 5th Floor, 87/1A, Old Mahabalipuram Road, Navalur","time":180,"week_open_time":["09:00"],"week_close_time":["22:30"],"weekend_open_time":["09:00"],"weekend_close_time":["22:30"]},{"name":"S2 Cinemas Perambur","latitude":13.112285,"longitude":80.236243,"user_rating":4.3,"category":"movie_theater","num_user_rated":13939,"vicinity":"2nd Floor Spectrum Mall, Paper Mills Road, Perambur, Chennai","time":180,"week_open_time":["09:00"],"week_close_time":["22:30"],"weekend_open_time":["09:00"],"weekend_close_time":["22:30"]},{"name":"Kamala Cinemas","latitude":13.0490233,"longitude":80.2100967,"user_rating":4.3,"category":"movie_theater","num_user_rated":12959,"vicinity":"156, Arcot Road, Vadapalani, Chennai","time":180,"week_open_time":["09:00"],"week_close_time":["22:30"],"weekend_open_time":["09:00"],"weekend_close_time":["22:30"]},{"name":"Ega Theatre","latitude":13.0778811,"longitude":80.2404623,"user_rating":3.9,"category":"movie_theater","num_user_rated":10504,"vicinity":"810, Poonamallee High Road, Vasu Street, Kilpauk, Chennai","time":180,"week_open_time":["09:00"],"week_close_time":["22:30"],"weekend_open_time":["09:00"],"weekend_close_time":["22:30"]},{"name":"Rakki Cinemas","latitude":13.1227884,"longitude":80.1474598,"user_rating":4.1,"category":"movie_theater","num_user_rated":17650,"vicinity":"No.1, Ambattur Red Hills Road, Ambattur, Chennai","time":180,"week_open_time":["09:00"],"week_close_time":["22:30"],"weekend_open_time":["09:00"],"weekend_close_time":["22:30"]},{"name":"Ganapathy Ram Theatre","latitude":13.0039687,"longitude":80.2563222,"user_rating":2.9,"category":"movie_theater","num_user_rated":3535,"vicinity":"101, LB Road, Baktavatsalm Nagar, Adyar, Chennai","time":180,"week_open_time":["09:00"],"week_close_time":["22:30"],"weekend_open_time":["09:00"],"weekend_close_time":["22:30"]},{"name":"Varadharaja Theatres","latitude":12.9377829,"longitude":80.1390337,"user_rating":4.2,"category":"movie_theater","num_user_rated":7805,"vicinity":"190/2B, 1st Main Road, Chitlapakkam, Chennai","time":180,"week_open_time":["09:00"],"week_close_time":["22:30"],"weekend_open_time":["09:00"],"weekend_close_time":["22:30"]},{"name":"S2 Theyagaraja","latitude":12.9895125,"longitude":80.2564385,"user_rating":4.3,"category":"movie_theater","num_user_rated":21877,"vicinity":"60, LB Road, Thiruvanmiyur, Chennai","time":180,"week_open_time":["09:00"],"week_close_time":["22:30"],"weekend_open_time":["09:00"],"weekend_close_time":["22:30"]},{"name":"Palazzo Cinemas","latitude":13.0504652,"longitude":80.2096475,"user_rating":4.6,"category":"movie_theater","num_user_rated":41809,"vicinity":"3rd Floor The Forum Vijaya Mall NSK Salai, Arcot Road, Vadapalani, Chennai","time":180,"week_open_time":["09:00"],"week_close_time":["22:30"],"weekend_open_time":["09:00"],"weekend_close_time":["22:30"]},{"name":"Inox","latitude":13.0429507,"longitude":80.2737903,"user_rating":4.1,"category":"movie_theater","num_user_rated":9268,"vicinity":"3rd Citi Center, Doctor Radha Krishnan Salai, Mylapore, Chennai","time":180,"week_open_time":["09:00"],"week_close_time":["22:30"],"weekend_open_time":["09:00"],"weekend_close_time":["22:30"]},{"name":"AGS Cinemas","latitude":13.0474385,"longitude":80.2449434,"user_rating":4.1,"category":"movie_theater","num_user_rated":15261,"vicinity":"No. 24, opp.to barathidasan hospital, 1, Gopathi Narayanaswami Chetty Road, T. Nagar, Chennai","time":180,"week_open_time":["09:00"],"week_close_time":["22:30"],"weekend_open_time":["09:00"],"weekend_close_time":["22:30"]},{"name":"SPI CINEMAS","latitude":13.0408793,"longitude":80.2560624,"user_rating":4.5,"category":"movie_theater","num_user_rated":52,"vicinity":"1/1, Venus Colony, Teynampet, Chennai","time":180,"week_open_time":["09:00"],"week_close_time":["22:30"],"weekend_open_time":["09:00"],"weekend_close_time":["22:30"]},{"name":"PVR Skywalk","latitude":13.073498,"longitude":80.221108,"user_rating":4.1,"category":"movie_theater","num_user_rated":13490,"vicinity":"Nelson Manickam Road, Aminjikarai, Chennai","time":180,"week_open_time":["09:00"],"week_close_time":["22:30"],"weekend_open_time":["09:00"],"weekend_close_time":["22:30"]},{"name":"teentalkstudio","latitude":13.054501,"longitude":80.211422,"user_rating":0,"category":"movie_theater","num_user_rated":0,"vicinity":"Raahat Plaza, besment shop no 10, 172, Arcot Road, Vadapalani, Chennai","time":180,"week_open_time":["09:00"],"week_close_time":["22:30"],"weekend_open_time":["09:00"],"weekend_close_time":["22:30"]},{"name":"Rohini Silver Screens","latitude":13.0757486,"longitude":80.1958707,"user_rating":3.9,"category":"movie_theater","num_user_rated":23377,"vicinity":"141/2, Poonamallee High Road, Koyambedu, Chennai","time":180,"week_open_time":["09:00"],"week_close_time":["22:30"],"weekend_open_time":["09:00"],"weekend_close_time":["22:30"]},{"name":"AVM Studios","latitude":13.0455608,"longitude":80.2044427,"user_rating":4.1,"category":"movie_theater","num_user_rated":981,"vicinity":"38, Arcot Road, AV Meiyappan Road, Ottagapalayam, Chennai","time":180,"week_open_time":["09:00"],"week_close_time":["22:30"],"weekend_open_time":["09:00"],"weekend_close_time":["22:30"]},{"name":"Chennais Visualite film Institute | Photography | Cinematography |Direction |Acting | Viscom Course","latitude":13.0012552,"longitude":80.2544007,"user_rating":5,"category":"movie_theater","num_user_rated":209,"vicinity":"29/14, Kamaraj Avenue 2nd Street, Indira Nagar, Venkata Rathinam Nagar, Adyar, Chennai","time":180,"week_open_time":["09:00"],"week_close_time":["22:30"],"weekend_open_time":["09:00"],"weekend_close_time":["22:30"]},{"name":"Chandra Metro Mall","latitude":13.046769,"longitude":80.1903895,"user_rating":4,"category":"movie_theater","num_user_rated":6431,"vicinity":"Near D Mart, 262, Arcot Road, Rajeswari Colony, Virugambakkam, Chennai","time":180,"week_open_time":["09:00"],"week_close_time":["22:30"],"weekend_open_time":["09:00"],"weekend_close_time":["22:30"]},{"name":"Jazz Cinemas Luxe","latitude":12.9906971,"longitude":80.2167184,"user_rating":4.6,"category":"movie_theater","num_user_rated":35438,"vicinity":"Phoenix Market City, No. 142, 2nd Floor, Velachery Main Road, Indira Gandhi Nagar, Velachery, Chennai","time":180,"week_open_time":["09:00"],"week_close_time":["22:30"],"weekend_open_time":["09:00"],"weekend_close_time":["22:30"]},{"name":"Shivakumar Raju","latitude":13.061238,"longitude":80.163899,"user_rating":0,"category":"movie_theater","num_user_rated":0,"vicinity":"Maduravoyal, Chennai","time":180,"week_open_time":["09:00"],"week_close_time":["22:30"],"weekend_open_time":["09:00"],"weekend_close_time":["22:30"]},{"name":"Inox National Virugambakkam","latitude":13.0470303,"longitude":80.1903285,"user_rating":3.9,"category":"movie_theater","num_user_rated":12536,"vicinity":"Arcot Road, Chandra Metro Mall, Virugambakkam Old 92, New 262, Chennai","time":180,"week_open_time":["09:00"],"week_close_time":["22:30"],"weekend_open_time":["09:00"],"weekend_close_time":["22:30"]},{"name":"PVR Cinemas","latitude":12.9719462,"longitude":80.2205255,"user_rating":4.1,"category":"movie_theater","num_user_rated":17720,"vicinity":"3rd Grand Square Mall 137, Tambaram, Velachery - Tambaram Main Road, Velachery, Chennai","time":180,"week_open_time":["09:00"],"week_close_time":["22:30"],"weekend_open_time":["09:00"],"weekend_close_time":["22:30"]},{"name":"Kumaran Cinemas","latitude":12.9720725,"longitude":80.1914614,"user_rating":3.6,"category":"movie_theater","num_user_rated":7441,"vicinity":"5, Muthu Mohamed Street, Puzhuthivakkam, Madipakkam, Chennai","time":180,"week_open_time":["09:00"],"week_close_time":["22:30"],"weekend_open_time":["09:00"],"weekend_close_time":["22:30"]},{"name":"Shree Radha Movie Park A/C","latitude":13.1930996,"longitude":80.1834342,"user_rating":3.6,"category":"movie_theater","num_user_rated":678,"vicinity":"GNT Road, Redhills, Padianallur","time":180,"week_open_time":["09:00"],"week_close_time":["22:30"],"weekend_open_time":["09:00"],"weekend_close_time":["22:30"]},{"name":"Prarthana Beach Drive-in Theatre","latitude":12.9298946,"longitude":80.2522815,"user_rating":3.8,"category":"movie_theater","num_user_rated":4417,"vicinity":"State Highway 49, Injambakkam, Chennai","time":180,"week_open_time":["09:00"],"week_close_time":["22:30"],"weekend_open_time":["09:00"],"weekend_close_time":["22:30"]},{"name":"Mayajaal Multiplex","latitude":12.8480384,"longitude":80.2398611,"user_rating":4,"category":"movie_theater","num_user_rated":40451,"vicinity":"34/1 East Coast Road Kanathur, Chennai","time":180,"week_open_time":["09:00"],"week_close_time":["22:30"],"weekend_open_time":["09:00"],"weekend_close_time":["22:30"]},{"name":"Tik Prime","latitude":12.9193728,"longitude":80.0833894,"user_rating":0,"category":"movie_theater","num_user_rated":0,"vicinity":"# 25, Ranganayagi Street, Manavalan Nagar, Old Perungalathur, Chennai","time":180,"week_open_time":["09:00"],"week_close_time":["22:30"],"weekend_open_time":["09:00"],"weekend_close_time":["22:30"]},{"name":"VVM Cinemas","latitude":13.33569,"longitude":80.1947328,"user_rating":2.9,"category":"movie_theater","num_user_rated":211,"vicinity":"57,Newcar Street, Thiruvallur Dist, Ponneri","time":180,"week_open_time":["09:00"],"week_close_time":["22:30"],"weekend_open_time":["09:00"],"weekend_close_time":["22:30"]},{"name":"Vettri Theatres 4K 3D","latitude":12.9546678,"longitude":80.1416564,"user_rating":4.1,"category":"movie_theater","num_user_rated":18972,"vicinity":"511, Great Southern Trunk Road, Chromepet, Chennai","time":180,"week_open_time":["09:00"],"week_close_time":["22:30"],"weekend_open_time":["09:00"],"weekend_close_time":["22:30"]},{"name":"Sree Gopi Krishna Complex","latitude":13.0948593,"longitude":80.2272743,"user_rating":3.1,"category":"movie_theater","num_user_rated":2500,"vicinity":"13, Muthamman Koil Street, Ayanavaram, Chennai","time":180,"week_open_time":["09:00"],"week_close_time":["22:30"],"weekend_open_time":["09:00"],"weekend_close_time":["22:30"]},{"name":"Sri Brinda Theater","latitude":13.1197413,"longitude":80.2421984,"user_rating":3.3,"category":"movie_theater","num_user_rated":2298,"vicinity":"129, Madhavaram High Road, Perambur, Chennai","time":180,"week_open_time":["09:00"],"week_close_time":["22:30"],"weekend_open_time":["09:00"],"weekend_close_time":["22:30"]},{"name":"Bharath Theatre","latitude":13.1102599,"longitude":80.2797875,"user_rating":4.1,"category":"movie_theater","num_user_rated":2191,"vicinity":"40, Dr.Vijayaraghavalu Road, Old Washermanpet, Chennai","time":180,"week_open_time":["09:00"],"week_close_time":["22:30"],"weekend_open_time":["09:00"],"weekend_close_time":["22:30"]},{"name":"Govt. Certified Diploma Courses |Photography| Sound Engineering |Direction| Cinematography|Acting","latitude":13.032575,"longitude":80.2166428,"user_rating":4.8,"category":"movie_theater","num_user_rated":16,"vicinity":"15, 62nd Street, Indira Colony, Ashok Nagar, Chennai","time":180,"week_open_time":["09:00"],"week_close_time":["22:30"],"weekend_open_time":["09:00"],"weekend_close_time":["22:30"]},{"name":"AnandRishi Productions","latitude":13.0838603,"longitude":80.2633784,"user_rating":3.6,"category":"movie_theater","num_user_rated":15,"vicinity":"2, Brethapet Road, Park Town, Chennai","time":180,"week_open_time":["09:00"],"week_close_time":["22:30"],"weekend_open_time":["09:00"],"weekend_close_time":["22:30"]},{"name":"Marudhar Studio","latitude":13.0990815,"longitude":80.278156,"user_rating":4,"category":"movie_theater","num_user_rated":17,"vicinity":"69/30, Krishnappa Tank Street, Kondithope, Chennai","time":180,"week_open_time":["09:00"],"week_close_time":["22:30"],"weekend_open_time":["09:00"],"weekend_close_time":["22:30"]},{"name":"BLACKHAWK STUDIOS","latitude":13.0529707,"longitude":80.2789383,"user_rating":0,"category":"movie_theater","num_user_rated":0,"vicinity":"Venkatrangam Street, Triplicane, Chennai","time":180,"week_open_time":["09:00"],"week_close_time":["22:30"],"weekend_open_time":["09:00"],"weekend_close_time":["22:30"]},{"name":"IDream Cinemas","latitude":13.116162,"longitude":80.2931543,"user_rating":4,"category":"movie_theater","num_user_rated":4242,"vicinity":"No. 87, Suryanarayana, Thambu Chetty Street, Kalmandapam, Royapuram, Chennai","time":180,"week_open_time":["09:00"],"week_close_time":["22:30"],"weekend_open_time":["09:00"],"weekend_close_time":["22:30"]},{"name":"Pandian Cinema Hall","latitude":13.1255228,"longitude":80.2787638,"user_rating":0,"category":"movie_theater","num_user_rated":0,"vicinity":"11, Parthasarathi Street, Old Washermanpet, Chennai","time":180,"week_open_time":["09:00"],"week_close_time":["22:30"],"weekend_open_time":["09:00"],"weekend_close_time":["22:30"]},{"name":"Agastya Theatre","latitude":13.1245833,"longitude":80.2890831,"user_rating":0,"category":"movie_theater","num_user_rated":0,"vicinity":"232, Thiruvottiyur High Road, Tondiarpet, Chennai","time":180,"week_open_time":["09:00"],"week_close_time":["22:30"],"weekend_open_time":["09:00"],"weekend_close_time":["22:30"]},{"name":"Sri Pandiyan","latitude":13.1285633,"longitude":80.2727091,"user_rating":0,"category":"movie_theater","num_user_rated":0,"vicinity":"15, Kamarajar Salai, Kodungaiyur, Chennai","time":180,"week_open_time":["09:00"],"week_close_time":["22:30"],"weekend_open_time":["09:00"],"weekend_close_time":["22:30"]},{"name":"4th street Creation","latitude":13.034136,"longitude":80.2502599,"user_rating":5,"category":"movie_theater","num_user_rated":1,"vicinity":"Alwarpet Street, Phase 4, Alwarpet, Chennai","time":180,"week_open_time":["09:00"],"week_close_time":["22:30"],"weekend_open_time":["09:00"],"weekend_close_time":["22:30"]},{"name":"GREEN MATTE STUDIO","latitude":13.0525896,"longitude":80.2189259,"user_rating":4.5,"category":"movie_theater","num_user_rated":28,"vicinity":"34/17, South, Sivan Kovil Road, Power House, Kodambakkam, Chennai","time":180,"week_open_time":["09:00"],"week_close_time":["22:30"],"weekend_open_time":["09:00"],"weekend_close_time":["22:30"]},{"name":"CtcMediaboy","latitude":13.054426,"longitude":80.204856,"user_rating":4.6,"category":"movie_theater","num_user_rated":5,"vicinity":"No 17, 16/4, First Floor, Second Street, Dhanalakshmi Colony, Vadapalani, Chennai","time":180,"week_open_time":["09:00"],"week_close_time":["22:30"],"weekend_open_time":["09:00"],"weekend_close_time":["22:30"]},{"name":"ICONIC CINEMA","latitude":13.0542689,"longitude":80.2024927,"user_rating":0,"category":"movie_theater","num_user_rated":0,"vicinity":"No 50/8 C4,2nd Floor, Sairam Appartment, Harikrishnan Street, Saligramam, Chennai","time":180,"week_open_time":["09:00"],"week_close_time":["22:30"],"weekend_open_time":["09:00"],"weekend_close_time":["22:30"]},{"name":"Alpine Media Films & Productions","latitude":13.0674519,"longitude":80.1972569,"user_rating":0,"category":"movie_theater","num_user_rated":0,"vicinity":"Sriji Majestic Commercial Complex, F17, Koyambedu, Chennai","time":180,"week_open_time":["09:00"],"week_close_time":["22:30"],"weekend_open_time":["09:00"],"weekend_close_time":["22:30"]},{"name":"META - Maya Export Training Academy","latitude":13.06122,"longitude":80.1987054,"user_rating":5,"category":"movie_theater","num_user_rated":52,"vicinity":"No.18, 72, Jakkamal Koil Street, Postal audit colony, Saligramam, Chennai","time":180,"week_open_time":["09:00"],"week_close_time":["22:30"],"weekend_open_time":["09:00"],"weekend_close_time":["22:30"]},{"name":"Raj Cinema Hall - Chennai","latitude":13.0194283,"longitude":80.2240107,"user_rating":0,"category":"movie_theater","num_user_rated":0,"vicinity":"20, Abdul Razzak Street, Saidapet, Chennai","time":180,"week_open_time":["09:00"],"week_close_time":["22:30"],"weekend_open_time":["09:00"],"weekend_close_time":["22:30"]},{"name":"THE SOUTH INDIAN COMPANY","latitude":13.0429169,"longitude":80.197391,"user_rating":4.3,"category":"movie_theater","num_user_rated":3,"vicinity":"46/5, 53rd Street, Sector 9, K. K. Nagar, Chennai","time":180,"week_open_time":["09:00"],"week_close_time":["22:30"],"weekend_open_time":["09:00"],"weekend_close_time":["22:30"]},{"name":"Vavents Studio","latitude":13.0381823,"longitude":80.1944041,"user_rating":5,"category":"movie_theater","num_user_rated":6,"vicinity":"1228, 77th Street, Ponnambalam Colony, Sector 12, K. K. Nagar, Chennai","time":180,"week_open_time":["09:00"],"week_close_time":["22:30"],"weekend_open_time":["09:00"],"weekend_close_time":["22:30"]},{"name":"Ungalal Oruvan","latitude":13.0155604,"longitude":80.2085475,"user_rating":0,"category":"movie_theater","num_user_rated":0,"vicinity":"Guindy, Chennai","time":180,"week_open_time":["09:00"],"week_close_time":["22:30"],"weekend_open_time":["09:00"],"weekend_close_time":["22:30"]},{"name":"Cinibeats","latitude":13.0506587,"longitude":80.180703,"user_rating":0,"category":"movie_theater","num_user_rated":0,"vicinity":"1A, Main Road, Syndicate Colony, Alwartirunagar, Valasaravakkam, Chennai","time":180,"week_open_time":["09:00"],"week_close_time":["22:30"],"weekend_open_time":["09:00"],"weekend_close_time":["22:30"]},{"name":"SR Theatre A/C DTS SONY 4K","latitude":13.0127168,"longitude":80.2038613,"user_rating":0,"category":"movie_theater","num_user_rated":0,"vicinity":"103, Great Southern Trunk Road, Guindy, Maduranthakam","time":180,"week_open_time":["09:00"],"week_close_time":["22:30"],"weekend_open_time":["09:00"],"weekend_close_time":["22:30"]},{"name":"Shree Radha Bala Multiplex","latitude":13.1584266,"longitude":80.2040113,"user_rating":0,"category":"movie_theater","num_user_rated":0,"vicinity":"3, Dr. Ambedkar Street, Red Hills, Chennai","time":180,"week_open_time":["09:00"],"week_close_time":["22:30"],"weekend_open_time":["09:00"],"weekend_close_time":["22:30"]},{"name":"SK - MARLEN Cinemas","latitude":13.001838,"longitude":80.2039453,"user_rating":3.1,"category":"movie_theater","num_user_rated":2658,"vicinity":"Subramania Mudali Street, No:18, Appavu Street, Alandur, Chennai","time":180,"week_open_time":["09:00"],"week_close_time":["22:30"],"weekend_open_time":["09:00"],"weekend_close_time":["22:30"]},{"name":"PVR: Grand Galada Chennai","latitude":12.978953,"longitude":80.161894,"user_rating":4.2,"category":"movie_theater","num_user_rated":23104,"vicinity":"PVR LTD Grand Galada Mall Kohinoor-2, Chennai","time":180,"week_open_time":["09:00"],"week_close_time":["22:30"],"weekend_open_time":["09:00"],"weekend_close_time":["22:30"]},{"name":"Sundar Multiplex","latitude":13.0352691,"longitude":80.1552711,"user_rating":0,"category":"movie_theater","num_user_rated":0,"vicinity":"32, Trunk Road, Poonamallee, Chennai","time":180,"week_open_time":["09:00"],"week_close_time":["22:30"],"weekend_open_time":["09:00"],"weekend_close_time":["22:30"]},{"name":"Arunmathi Theatre","latitude":12.9776861,"longitude":80.1308357,"user_rating":3,"category":"movie_theater","num_user_rated":468,"vicinity":"No 31, 7th Street, Anakaputhur","time":180,"week_open_time":["09:00"],"week_close_time":["22:30"],"weekend_open_time":["09:00"],"weekend_close_time":["22:30"]},{"name":"GODSHIKA","latitude":12.9677431,"longitude":80.1254378,"user_rating":0,"category":"movie_theater","num_user_rated":0,"vicinity":"9, Gandhi Nagar Main Road, Shankar Nagar, Pammal, Chennai","time":180,"week_open_time":["09:00"],"week_close_time":["22:30"],"weekend_open_time":["09:00"],"weekend_close_time":["22:30"]},{"name":"MR Cinema Hall","latitude":12.9393146,"longitude":80.12997,"user_rating":0,"category":"movie_theater","num_user_rated":0,"vicinity":"49, Great Southern Trunk Road, Tambaram, Chennai","time":180,"week_open_time":["09:00"],"week_close_time":["22:30"],"weekend_open_time":["09:00"],"weekend_close_time":["22:30"]},{"name":"Government Museum Chennai","latitude":13.0716298,"longitude":80.2567955,"user_rating":4.3,"category":"museum","num_user_rated":9511,"vicinity":"Government Maternity Hospital, Pantheon Road, Egmore, Chennai","time":120,"week_open_time":["10:00"],"week_close_time":["17:00"],"weekend_open_time":["11:00"],"weekend_close_time":["17:00"]},{"name":"Philatelic Bureau","latitude":13.0672026,"longitude":80.2697426,"user_rating":4.3,"category":"museum","num_user_rated":25,"vicinity":"Anna Salai, Chennai","time":120,"week_open_time":["10:00"],"week_close_time":["17:00"],"weekend_open_time":["11:00"],"weekend_close_time":["17:00"]},{"name":"MGR Memorial House","latitude":13.0385945,"longitude":80.2416468,"user_rating":4.4,"category":"museum","num_user_rated":695,"vicinity":"27, Arcot Street, T. Nagar, Chennai","time":120,"week_open_time":["10:00"],"week_close_time":["17:00"],"weekend_open_time":["11:00"],"weekend_close_time":["17:00"]},{"name":"Foundation Of Occupational Development","latitude":13.0452808,"longitude":80.2121145,"user_rating":4.3,"category":"museum","num_user_rated":3,"vicinity":"C-block, 1st Floor, Bharathiar Complex, 100, Feet Road, Vadapalani, Vadapalani, Chennai","time":120,"week_open_time":["10:00"],"week_close_time":["17:00"],"weekend_open_time":["11:00"],"weekend_close_time":["17:00"]},{"name":"Tamilnadu Science and Technology Center","latitude":13.0124683,"longitude":80.2438056,"user_rating":4,"category":"museum","num_user_rated":289,"vicinity":"Gandhi Mandapam Road, Guindy, Chennai","time":120,"week_open_time":["10:00"],"week_close_time":["17:00"],"weekend_open_time":["11:00"],"weekend_close_time":["17:00"]},{"name":"Edge Design House","latitude":13.0040429,"longitude":80.2500045,"user_rating":4.6,"category":"museum","num_user_rated":11,"vicinity":"Old No:32, New No:26 Vijay Mahal, 5th Main Road, Kasturba Nagar Adyar, Chennai","time":120,"week_open_time":["10:00"],"week_close_time":["17:00"],"weekend_open_time":["11:00"],"weekend_close_time":["17:00"]},{"name":"Dakshina Chitra Museum","latitude":12.823037,"longitude":80.2420451,"user_rating":4.4,"category":"museum","num_user_rated":10281,"vicinity":"State Highway 49, Muthukadu","time":120,"week_open_time":["10:00"],"week_close_time":["17:00"],"weekend_open_time":["11:00"],"weekend_close_time":["17:00"]},{"name":"Science City","latitude":13.0133831,"longitude":80.242994,"user_rating":4.2,"category":"museum","num_user_rated":189,"vicinity":"Planatarium Campus, Gandhi Mandapam Road, Chennai","time":120,"week_open_time":["10:00"],"week_close_time":["17:00"],"weekend_open_time":["11:00"],"weekend_close_time":["17:00"]},{"name":"Vivekananda House","latitude":13.0498494,"longitude":80.2804094,"user_rating":4.5,"category":"museum","num_user_rated":5930,"vicinity":"Kamaraj Salai, Marina Beach Road, Triplicane, Chennai","time":120,"week_open_time":["10:00"],"week_close_time":["17:00"],"weekend_open_time":["11:00"],"weekend_close_time":["17:00"]},{"name":"Chennai Rail Museum","latitude":13.100308,"longitude":80.2073677,"user_rating":4.4,"category":"museum","num_user_rated":4624,"vicinity":"next to ICF Furnishing Division, New Avadi Road, Villivakkam, Chennai","time":120,"week_open_time":["10:00"],"week_close_time":["17:00"],"weekend_open_time":["11:00"],"weekend_close_time":["17:00"]},{"name":"Chennai Rail Museum","latitude":13.0826333,"longitude":80.2749465,"user_rating":4,"category":"museum","num_user_rated":9,"vicinity":"Kannappar Thidal, Periyamet, Chennai","time":120,"week_open_time":["10:00"],"week_close_time":["17:00"],"weekend_open_time":["11:00"],"weekend_close_time":["17:00"]},{"name":"Chennai central station","latitude":13.0828453,"longitude":80.2752807,"user_rating":4.3,"category":"museum","num_user_rated":238,"vicinity":"Puratchi Thalaivar Dr MGR Central railway station, Kannappar Thidal, Periyamet, Chennai","time":120,"week_open_time":["10:00"],"week_close_time":["17:00"],"weekend_open_time":["11:00"],"weekend_close_time":["17:00"]},{"name":"T M Gembu Chetty","latitude":13.086074,"longitude":80.279364,"user_rating":5,"category":"museum","num_user_rated":2,"vicinity":"Old No. 158 C, New No. 129 c, Rasappa Chetty Street,, Chennai","time":120,"week_open_time":["10:00"],"week_close_time":["17:00"],"weekend_open_time":["11:00"],"weekend_close_time":["17:00"]},{"name":"Fort St. George","latitude":13.0796439,"longitude":80.2874492,"user_rating":4.2,"category":"museum","num_user_rated":3858,"vicinity":"near Legislature and Secretariat, Rajaji Road, Chennai","time":120,"week_open_time":["10:00"],"week_close_time":["17:00"],"weekend_open_time":["11:00"],"weekend_close_time":["17:00"]},{"name":"Perarignar Anna Museum","latitude":13.0662097,"longitude":80.2850929,"user_rating":4.4,"category":"museum","num_user_rated":51,"vicinity":"Navalar Nagar, Chepauk, Triplicane, Chennai","time":120,"week_open_time":["10:00"],"week_close_time":["17:00"],"weekend_open_time":["11:00"],"weekend_close_time":["17:00"]},{"name":"Kalainar Karunanithi Memorial","latitude":13.0659612,"longitude":80.2857913,"user_rating":3.3,"category":"museum","num_user_rated":3,"vicinity":"Navalar Nagar, Chepauk, Triplicane, Chennai","time":120,"week_open_time":["10:00"],"week_close_time":["17:00"],"weekend_open_time":["11:00"],"weekend_close_time":["17:00"]},{"name":"Global Marble Emporium","latitude":13.053664,"longitude":80.211943,"user_rating":4.8,"category":"museum","num_user_rated":47,"vicinity":"64/1, Inner Ring Road, Thirunagar, Vadapalani, Chennai","time":120,"week_open_time":["10:00"],"week_close_time":["17:00"],"weekend_open_time":["11:00"],"weekend_close_time":["17:00"]},{"name":"Thattan Kulam Pond","latitude":13.1466876,"longitude":80.231061,"user_rating":3.6,"category":"museum","num_user_rated":11,"vicinity":"Kanmal Nagar, Madhavaram, Chennai","time":120,"week_open_time":["10:00"],"week_close_time":["17:00"],"weekend_open_time":["11:00"],"weekend_close_time":["17:00"]},{"name":"Magic Mirage Science","latitude":13.0571361,"longitude":80.1932459,"user_rating":5,"category":"museum","num_user_rated":1,"vicinity":"#257, 2nd Main Road, Natesa Nagar, Virugambakkam, Chennai","time":120,"week_open_time":["10:00"],"week_close_time":["17:00"],"weekend_open_time":["11:00"],"weekend_close_time":["17:00"]},{"name":"SRI KOLHAPURI - The Doll Factory","latitude":12.9730711,"longitude":80.1898352,"user_rating":4.7,"category":"museum","num_user_rated":38,"vicinity":"1, 5th Street, Nanganallur, Chennai","time":120,"week_open_time":["10:00"],"week_close_time":["17:00"],"weekend_open_time":["11:00"],"weekend_close_time":["17:00"]},{"name":"Click Art Museum","latitude":12.91321,"longitude":80.2513047,"user_rating":4.2,"category":"museum","num_user_rated":745,"vicinity":"159, 5/108 5/108, State Highway 49, Akkarai, Injambakkam, Chennai","time":120,"week_open_time":["10:00"],"week_close_time":["17:00"],"weekend_open_time":["11:00"],"weekend_close_time":["17:00"]},{"name":"The Raintree, Anna Salai","latitude":13.033861,"longitude":80.243921,"user_rating":4.4,"category":"restaurant","num_user_rated":6810,"vicinity":"636, Anna Salai, Teynampet, Chennai","time":90,"week_open_time":["12:00"],"week_close_time":["23:30"],"weekend_open_time":["12:00"],"weekend_close_time":["23:30"]},{"name":"Lemon Tree Hotel, Chennai","latitude":13.0111566,"longitude":80.2246885,"user_rating":3.9,"category":"restaurant","num_user_rated":3491,"vicinity":"72, Sardar Patel Road, Venkta Puram, Guindy, Chennai","time":90,"week_open_time":["12:00"],"week_close_time":["23:30"],"weekend_open_time":["12:00"],"weekend_close_time":["23:30"]},{"name":"Grand by GRT Hotels","latitude":13.0401407,"longitude":80.2451383,"user_rating":4.4,"category":"restaurant","num_user_rated":10382,"vicinity":"120, Sir Theagaraya Road, Drivers Colony, T. Nagar, Chennai","time":90,"week_open_time":["12:00"],"week_close_time":["23:30"],"weekend_open_time":["12:00"],"weekend_close_time":["23:30"]},{"name":"Barbeque Nation - Chennai - T Nagar","latitude":13.0469296,"longitude":80.2349447,"user_rating":4.2,"category":"restaurant","num_user_rated":7183,"vicinity":"near The Grand Sweets, No. 39, 1st Floor, Star City Serviced Apartment Ground Floor, near The Grand Sweets, Bazullah Road, T. Nagar, Chennai","time":90,"week_open_time":["12:00"],"week_close_time":["23:30"],"weekend_open_time":["12:00"],"weekend_close_time":["23:30"]},{"name":"New Woodlands Hotel","latitude":13.045397,"longitude":80.2621209,"user_rating":4.2,"category":"restaurant","num_user_rated":7243,"vicinity":"72 & 75, Doctor Radha Krishnan Salai, Mylapore, Chennai","time":90,"week_open_time":["12:00"],"week_close_time":["23:30"],"weekend_open_time":["12:00"],"weekend_close_time":["23:30"]},{"name":"Ginger Hotel Chennai (Vadapalani)","latitude":13.0564722,"longitude":80.2111602,"user_rating":3.7,"category":"restaurant","num_user_rated":2248,"vicinity":"61, Inner Ring Road, NGO Colony, Vadapalani, Chennai","time":90,"week_open_time":["12:00"],"week_close_time":["23:30"],"weekend_open_time":["12:00"],"weekend_close_time":["23:30"]},{"name":"Anjappar Chettinad Restaurant Nungambakkam","latitude":13.0558391,"longitude":80.2484305,"user_rating":3.8,"category":"restaurant","num_user_rated":1490,"vicinity":"Rosy Tower, 7/2, Nungambakkam High Road, Nungambakkam, Chennai","time":90,"week_open_time":["12:00"],"week_close_time":["23:30"],"weekend_open_time":["12:00"],"weekend_close_time":["23:30"]},{"name":"Sangeetha Veg Restaurant","latitude":13.0070607,"longitude":80.250072,"user_rating":4.2,"category":"restaurant","num_user_rated":12022,"vicinity":"Shop No: 7, near Reliance Digital, 1st Main Road, Gandhi Nagar, Adyar, Chennai","time":90,"week_open_time":["12:00"],"week_close_time":["23:30"],"weekend_open_time":["12:00"],"weekend_close_time":["23:30"]},{"name":"MGM Eastwoods","latitude":12.9106138,"longitude":80.2498873,"user_rating":3.9,"category":"restaurant","num_user_rated":1069,"vicinity":"1, 240, State Highway 49, Injambakkam, Chennai","time":90,"week_open_time":["12:00"],"week_close_time":["23:30"],"weekend_open_time":["12:00"],"weekend_close_time":["23:30"]},{"name":"Adyar Ananda Bhavan Pure Vegetarian Restaurant - Adyar","latitude":13.0057837,"longitude":80.2574872,"user_rating":4.1,"category":"restaurant","num_user_rated":4259,"vicinity":"No. 9, Near Adyar Manere LB Road Gandhi Nagar, Shastri Nagar, Adyar, Chennai","time":90,"week_open_time":["12:00"],"week_close_time":["23:30"],"weekend_open_time":["12:00"],"weekend_close_time":["23:30"]},{"name":"Crimson Chakra","latitude":13.0106705,"longitude":80.2540675,"user_rating":3.7,"category":"restaurant","num_user_rated":1248,"vicinity":"#13, 1st, Crescent Road, Gandhi Nagar, Adyar, Chennai","time":90,"week_open_time":["12:00"],"week_close_time":["23:30"],"weekend_open_time":["12:00"],"weekend_close_time":["23:30"]},{"name":"Benjarong - Thai Restaurant","latitude":13.03174,"longitude":80.2518265,"user_rating":4.4,"category":"restaurant","num_user_rated":1113,"vicinity":"146, TT Krishnamachari Road, Alwarpet, Chennai","time":90,"week_open_time":["12:00"],"week_close_time":["23:30"],"weekend_open_time":["12:00"],"weekend_close_time":["23:30"]},{"name":"Hotel Saravana Bhavan","latitude":13.0412278,"longitude":80.235571,"user_rating":3.6,"category":"restaurant","num_user_rated":3214,"vicinity":"102, Sir Theagaraya Road, Pondy Bazaar, Parthasarathi Puram, T. Nagar, Chennai","time":90,"week_open_time":["12:00"],"week_close_time":["23:30"],"weekend_open_time":["12:00"],"weekend_close_time":["23:30"]},{"name":"The Cascade","latitude":13.0601823,"longitude":80.2480818,"user_rating":4.2,"category":"restaurant","num_user_rated":888,"vicinity":"1632, Platinum Tower 2nd Floor, Khader Nawaz Khan Road, Thousand Lights West, Nungambakkam, Chennai","time":90,"week_open_time":["12:00"],"week_close_time":["23:30"],"weekend_open_time":["12:00"],"weekend_close_time":["23:30"]},{"name":"Raj Park Hotel Chennai","latitude":13.0442798,"longitude":80.2593323,"user_rating":4,"category":"restaurant","num_user_rated":3447,"vicinity":"180, TT Krishnamachari Road, Alwarpet, Chennai","time":90,"week_open_time":["12:00"],"week_close_time":["23:30"],"weekend_open_time":["12:00"],"weekend_close_time":["23:30"]},{"name":"Cream Centre","latitude":13.0671679,"longitude":80.2460597,"user_rating":4.3,"category":"restaurant","num_user_rated":2594,"vicinity":"45, College Road, Subba Road Avenue, Nungambakkam, Chennai","time":90,"week_open_time":["12:00"],"week_close_time":["23:30"],"weekend_open_time":["12:00"],"weekend_close_time":["23:30"]},{"name":"10 Downing Street","latitude":13.0430687,"longitude":80.244168,"user_rating":4.1,"category":"restaurant","num_user_rated":5465,"vicinity":"Kences Inn, 50, North Boag Road, T. Nagar, Chennai","time":90,"week_open_time":["12:00"],"week_close_time":["23:30"],"weekend_open_time":["12:00"],"weekend_close_time":["23:30"]},{"name":"Subway","latitude":13.0826252,"longitude":80.211007,"user_rating":4.4,"category":"restaurant","num_user_rated":1668,"vicinity":"AC 112, 4th Avenue, Shanthi Colony, Anna Nagar, Chennai","time":90,"week_open_time":["12:00"],"week_close_time":["23:30"],"weekend_open_time":["12:00"],"weekend_close_time":["23:30"]},{"name":"Blue Lagoon Beach Resort","latitude":12.941559,"longitude":80.255757,"user_rating":3.9,"category":"restaurant","num_user_rated":4165,"vicinity":"5/72, East Coast Road, Raja Nagar, Neelankarai","time":90,"week_open_time":["12:00"],"week_close_time":["23:30"],"weekend_open_time":["12:00"],"weekend_close_time":["23:30"]},{"name":"Rain Forest","latitude":13.0071695,"longitude":80.257713,"user_rating":4.1,"category":"restaurant","num_user_rated":5017,"vicinity":"41 & 42, 1st Main Road, Gandhi Road, Adyar, Chennai","time":90,"week_open_time":["12:00"],"week_close_time":["23:30"],"weekend_open_time":["12:00"],"weekend_close_time":["23:30"]},{"name":"Hotel City Tower","latitude":13.0846097,"longitude":80.2760267,"user_rating":3.8,"category":"restaurant","num_user_rated":1023,"vicinity":"148, Wall Tax Road, Park Town, Central","time":90,"week_open_time":["12:00"],"week_close_time":["23:30"],"weekend_open_time":["12:00"],"weekend_close_time":["23:30"]},{"name":"The Pride Hotel, Chennai","latitude":13.0787667,"longitude":80.2490373,"user_rating":3.8,"category":"restaurant","num_user_rated":2256,"vicinity":"216, E V R Periyar Salai, Near Sangam Cinema Poonamalle, High Road, Kilpauk, Chennai","time":90,"week_open_time":["12:00"],"week_close_time":["23:30"],"weekend_open_time":["12:00"],"weekend_close_time":["23:30"]},{"name":"Park Avenue Hotel","latitude":13.0640204,"longitude":80.2437126,"user_rating":3.9,"category":"restaurant","num_user_rated":711,"vicinity":"No. 67, 84, Nungambakkam High Road, Block Z, Tirumurthy Nagar, Nungambakkam, Chennai","time":90,"week_open_time":["12:00"],"week_close_time":["23:30"],"weekend_open_time":["12:00"],"weekend_close_time":["23:30"]},{"name":"Maple Tree Hotels","latitude":13.0550071,"longitude":80.211257,"user_rating":3.7,"category":"restaurant","num_user_rated":1733,"vicinity":"near City Union Bank, No.77, Inner Ring Road, Vadapalani, Chennai","time":90,"week_open_time":["12:00"],"week_close_time":["23:30"],"weekend_open_time":["12:00"],"weekend_close_time":["23:30"]},{"name":"Hot Chips Veg Restaurant","latitude":13.006459,"longitude":80.244743,"user_rating":3.5,"category":"restaurant","num_user_rated":2083,"vicinity":"near CLRI, Ramco Systems, New #52, near CLRI, Ramco Systems, Sardar Patel Road, Adyar, Chennai","time":90,"week_open_time":["12:00"],"week_close_time":["23:30"],"weekend_open_time":["12:00"],"weekend_close_time":["23:30"]},{"name":"Sigree Global Grill","latitude":13.0530441,"longitude":80.2483127,"user_rating":4,"category":"restaurant","num_user_rated":2925,"vicinity":"4th Floor, No: 11, Kodambakkam High Road, Nungambakkam, Chennai","time":90,"week_open_time":["12:00"],"week_close_time":["23:30"],"weekend_open_time":["12:00"],"weekend_close_time":["23:30"]},{"name":"Murugan Idli Shop","latitude":13.0453721,"longitude":80.2328574,"user_rating":4.1,"category":"restaurant","num_user_rated":6618,"vicinity":"46/13, North Usman Road, Parthasarathi Puram, T. Nagar, Chennai","time":90,"week_open_time":["12:00"],"week_close_time":["23:30"],"weekend_open_time":["12:00"],"weekend_close_time":["23:30"]},{"name":"Hotel Raaj Bhaavan","latitude":13.0558551,"longitude":80.2476916,"user_rating":3.7,"category":"restaurant","num_user_rated":1111,"vicinity":"4, Doctor Thirumoorthy Nagar Main Road, Tirumurthy Nagar, Nungambakkam, Chennai","time":90,"week_open_time":["12:00"],"week_close_time":["23:30"],"weekend_open_time":["12:00"],"weekend_close_time":["23:30"]},{"name":"Hotel Saravana Bhavan","latitude":13.0853532,"longitude":80.2521809,"user_rating":3.5,"category":"restaurant","num_user_rated":2301,"vicinity":"1, Vellala Street, Purasaiwakkam, Chennai","time":90,"week_open_time":["12:00"],"week_close_time":["23:30"],"weekend_open_time":["12:00"],"weekend_close_time":["23:30"]},{"name":"Hotel Saravana Bhavan Chennai, Egmore","latitude":13.076808,"longitude":80.262252,"user_rating":3.6,"category":"restaurant","num_user_rated":3211,"vicinity":"21, Kennet Lane, Egmore, Chennai","time":90,"week_open_time":["12:00"],"week_close_time":["23:30"],"weekend_open_time":["12:00"],"weekend_close_time":["23:30"]},{"name":"Keys Select Hotel Katti Ma","latitude":12.990265,"longitude":80.258568,"user_rating":4,"category":"restaurant","num_user_rated":1370,"vicinity":"11, 23, Kalakshetra Road, Thiruvanmiyur, Chennai","time":90,"week_open_time":["12:00"],"week_close_time":["23:30"],"weekend_open_time":["12:00"],"weekend_close_time":["23:30"]},{"name":"Adyar Ananda Bhavan Sweets & A2B Veg Restaurant - Nungambakkam","latitude":13.0644215,"longitude":80.243309,"user_rating":3.9,"category":"restaurant","num_user_rated":900,"vicinity":"No.1/9 &1, 10, Wheat Croft Road, Seetha Nagar, Nungambakkam, Chennai","time":90,"week_open_time":["12:00"],"week_close_time":["23:30"],"weekend_open_time":["12:00"],"weekend_close_time":["23:30"]},{"name":"Tuscana Pizzeria at Wallace Garden","latitude":13.0616706,"longitude":80.2497568,"user_rating":4.1,"category":"restaurant","num_user_rated":816,"vicinity":"Wallace Garden, Nungambakkam, 19, 3rd Street, Thousand Lights West, Thousand Lights, Chennai","time":90,"week_open_time":["12:00"],"week_close_time":["23:30"],"weekend_open_time":["12:00"],"weekend_close_time":["23:30"]},{"name":"Subway","latitude":12.985678,"longitude":80.2456202,"user_rating":4,"category":"restaurant","num_user_rated":903,"vicinity":"International Tech Park, CSIR Road, Tharamani, Chennai","time":90,"week_open_time":["12:00"],"week_close_time":["23:30"],"weekend_open_time":["12:00"],"weekend_close_time":["23:30"]},{"name":"Hotel Blue Diamond","latitude":13.0790264,"longitude":80.2532858,"user_rating":3.9,"category":"restaurant","num_user_rated":448,"vicinity":"934, E.V.R.Periyar Salai,Poonamalle High Road, Chennai","time":90,"week_open_time":["12:00"],"week_close_time":["23:30"],"weekend_open_time":["12:00"],"weekend_close_time":["23:30"]},{"name":"Kumarakom Restaurant","latitude":13.0531671,"longitude":80.2484995,"user_rating":3.8,"category":"restaurant","num_user_rated":1720,"vicinity":"Gemini Parson Complex, No: 3A/3, New, No 9, Kodambakkam High Road, Near, Nungambakkam, Chennai","time":90,"week_open_time":["12:00"],"week_close_time":["23:30"],"weekend_open_time":["12:00"],"weekend_close_time":["23:30"]},{"name":"McDonalds","latitude":13.0739162,"longitude":80.2211861,"user_rating":4.1,"category":"restaurant","num_user_rated":1824,"vicinity":"No 1 Jn, Ampa Skywalk 627 Poonamalle High Rd, Nelson Manickam Road, Chennai","time":90,"week_open_time":["12:00"],"week_close_time":["23:30"],"weekend_open_time":["12:00"],"weekend_close_time":["23:30"]},{"name":"Hotel Nayagara","latitude":13.0521392,"longitude":80.2278466,"user_rating":3.6,"category":"restaurant","num_user_rated":809,"vicinity":"No.15, United India Colony, 2nd Cross, Station View Road, Kodambakkam, Chennai","time":90,"week_open_time":["12:00"],"week_close_time":["23:30"],"weekend_open_time":["12:00"],"weekend_close_time":["23:30"]},{"name":"Wangs Kitchen - Opposite to Temenos","latitude":13.0655421,"longitude":80.2430627,"user_rating":3.6,"category":"restaurant","num_user_rated":496,"vicinity":"G-7, Gee Gee Emerald, # 151, Village, Road, Nungambakkam, Chennai","time":90,"week_open_time":["12:00"],"week_close_time":["23:30"],"weekend_open_time":["12:00"],"weekend_close_time":["23:30"]},{"name":"Dahlia Restaurant","latitude":13.0624689,"longitude":80.2452122,"user_rating":4.5,"category":"restaurant","num_user_rated":214,"vicinity":"No 37, Kaveri Complex, 96, Nungambakkam High Road, Subba Road Avenue, Nungambakkam, Chennai","time":90,"week_open_time":["12:00"],"week_close_time":["23:30"],"weekend_open_time":["12:00"],"weekend_close_time":["23:30"]},{"name":"Shri Rajasthani Dhaba Restaurant","latitude":13.0849281,"longitude":80.2040645,"user_rating":4.3,"category":"restaurant","num_user_rated":3270,"vicinity":"Shop No. C40, 3rd Floor, 2nd Avenue Road, Anna Nagar, Near Adyar Ananda Bhavan, Chennai","time":90,"week_open_time":["12:00"],"week_close_time":["23:30"],"weekend_open_time":["12:00"],"weekend_close_time":["23:30"]},{"name":"Fruit Shop on Greams Road","latitude":13.0603224,"longitude":80.2544789,"user_rating":4.3,"category":"restaurant","num_user_rated":1541,"vicinity":"near Apollo Hospital, 11, Greams Road, Thousand Lights, Chennai","time":90,"week_open_time":["12:00"],"week_close_time":["23:30"],"weekend_open_time":["12:00"],"weekend_close_time":["23:30"]},{"name":"Apoorvas Sangeetha Veg Restaurant","latitude":13.0564923,"longitude":80.2554904,"user_rating":3.9,"category":"restaurant","num_user_rated":1332,"vicinity":"65, Greams Road, Thousand Lights, Chennai","time":90,"week_open_time":["12:00"],"week_close_time":["23:30"],"weekend_open_time":["12:00"],"weekend_close_time":["23:30"]},{"name":"Hotel Saravana Bhavan","latitude":13.0543886,"longitude":80.2562069,"user_rating":3.4,"category":"restaurant","num_user_rated":3262,"vicinity":"133 & 134, Peters Road, Ganapathy Colony, Gopalapuram, Chennai","time":90,"week_open_time":["12:00"],"week_close_time":["23:30"],"weekend_open_time":["12:00"],"weekend_close_time":["23:30"]},{"name":"KFC","latitude":13.0534635,"longitude":80.2475204,"user_rating":3.7,"category":"restaurant","num_user_rated":1691,"vicinity":"No 172, Kodambakkam High Road, Tirumurthy Nagar, Nungambakkam, Chennai","time":90,"week_open_time":["12:00"],"week_close_time":["23:30"],"weekend_open_time":["12:00"],"weekend_close_time":["23:30"]},{"name":"Amaravathi Restaurant","latitude":13.0450725,"longitude":80.2593514,"user_rating":3.9,"category":"restaurant","num_user_rated":3427,"vicinity":"opp. Music Academy, 1, Cathedral Road, Parthasarathypuram, Mylapore, Chennai","time":90,"week_open_time":["12:00"],"week_close_time":["23:30"],"weekend_open_time":["12:00"],"weekend_close_time":["23:30"]},{"name":"Azzuri Bay","latitude":13.0111192,"longitude":80.2538252,"user_rating":4.1,"category":"restaurant","num_user_rated":2098,"vicinity":"13, 1st Crescent Park Road, Gandhi Nagar, Adyar, Chennai","time":90,"week_open_time":["12:00"],"week_close_time":["23:30"],"weekend_open_time":["12:00"],"weekend_close_time":["23:30"]},