name,latitude,longitude,user_rating,category,num_user_rated,vicinity,time
Amman Temple,12.9746792,80.1905608,4.8,hindu_temple,8,"2nd St, Balaji Nagar, Nanganallur, Chennai",60
Amman Temple,12.9655473,80.1702404,4.7,hindu_temple,7,"Sangavi Salai, Rajiv Gandhi Nagar, Pallavaram, Chennai",60
Arthanareeswarar Temple,12.984983,80.1883267,4.7,hindu_temple,1097,"4th Main Rd, Nanganallur, Chennai",60
Arulmigu Karaneeswarar Temple,13.02476,80.2231759,4.7,hindu_temple,3103,"1, Karaneeswarar Koil St, Suriyammapet, Saidapet, Chennai",60
Arulmigu Marundeeswarar Temple,12.9848721,80.2605869,4.7,hindu_temple,6591,"8, W Tank St, Lalitha Nagar, Thiruvanmiyur, Chennai",60
Arulmigu Maruntheeswarar Temple,12.7778037,79.9913814,4.7,hindu_temple,101,"Bharathiya Street, Thirukkachur, Kattankulathur",60
Arulmigu Ramar temple,13.0057564,80.2435513,4.2,hindu_temple,71,"2nd Street, Sriram Nagar, Tharamani, Chennai",60
Arulmigu Sri Parthasarathyswamy Temple,13.0538886,80.2770111,4.7,hindu_temple,13470,"Narayana Krishnaraja Puram, Triplicane, Chennai",60
Arulmigu Thiyagarajaswamy Temple,13.1614504,80.2995869,4.7,hindu_temple,2885,"Sannathi St, Gopal Nagar, Tiruvottiyur, Chennai",60
Ayyappan Temple,13.0189951,80.2681172,4.8,hindu_temple,2406,"82, Santhome Hwy Road, MRC Nagar, Raja Annamalai Puram, Chennai",60
Dhandeeswaram temple,12.9858183,80.2238753,4.6,hindu_temple,254,"1st Ave, Karunabigai Colony, Velachery, Chennai",60
Dharmalingeshwarar Temple,12.971563,80.186374,4.7,hindu_temple,301,"voltas colony main road, 50 ft road, Eswaran Colony, MMTC Colony, Nanganallur, Chennai",60
Ellaiyamman Temple,12.9701497,80.2370267,4.7,hindu_temple,10,"Ambedkar Nagar, Perungudi, Chennai",60
Ganesh Temple,13.0003312,80.2519063,4.7,hindu_temple,6,"60/56, Kasturba Nagar 3rd Cross St, Venkata Rathnam Nagar Extension, Venkata Rathinam Nagar, Adyar, Chennai",60
ganesha Temple,13.0249938,80.2592173,4.7,hindu_temple,7,"Chennai, Ramakrishna Nagar, Raja Annamalai Puram, Chennai",60
Gangadeeswarar Temple,13.0306667,80.1785053,4.2,hindu_temple,49,"Bajanai Kovil St, Mullai Nagar, Ramapuram, Chennai",60
Hrudayaaleeswarar Temple,13.1119451,80.0281219,4.8,hindu_temple,360,Thiruninravur,60
ISKCON,12.9061719,80.2418253,4.6,hindu_temple,10858,"Bhakti Vedanta Swami Road, Off ECR, Akkarai, Sholinganallur, Chennai",60
Jalakanteswarar Temple,13.001974,80.2417176,4.7,hindu_temple,198,"Delhi Ave, Indian Institute Of Technology, Chennai",60
Karapakkam Shivan Temple,12.9138419,80.2296553,4.6,hindu_temple,371,"Old Mahabalipuram Rd, Near Karapakkam Bus Stop, Karappakam, Chennai",60
Lord Nandheeswarar Temple,12.9946438,80.2004915,4.6,hindu_temple,201,"Pedestrian Overpass, TNGO Colony, Adambakkam, Chennai",60
Mangaleeshwarar Temple,13.0773796,80.2115161,4.2,hindu_temple,34,"782/464, National Highway 48, Arumbakkam, Chennai",60
Nagamariyamman Temple,13.0112652,80.2540296,0,hindu_temple,0,"1st Cres Park Rd, Gandhi Nagar, Adyar, Chennai",60
Raja Rajeshwari Temple,12.9895563,80.1916619,4.7,hindu_temple,334,"18th St, Thillaiganga Nagar, Nanganallur, Chennai",60
Sai Baba Temple,12.9989447,80.2071054,4.6,hindu_temple,36,"47, Link Rd, State Bank Colony, Guindy, Chennai",60
Selli Amman Temple Pond,12.9591575,80.1825371,4.5,hindu_temple,2,"Selli amman temple, Anbu Nagar, Keelkattalai, Chennai",60
Shiva Temple,13.1365722,80.132267,4.7,hindu_temple,246,"15/A, N Mada St, Thirumullaivoyal, Chennai",60
Shore Temple,12.6164515,80.1993321,4.6,place_of_worship,2622,Mahabalipuram,60
Shri Ashtalakshmi Temple,12.992607,80.2703938,4.5,hindu_temple,5066,"elliots beach, 6/21 paindi Amman Kovil, Besant Nagar, Chennai",60
"Shri Dhenupureeswarar Temple, Suyambu Lingam",12.8985977,80.1600266,4.8,hindu_temple,3528,"Madambakkam Main Rd, Madambakkam, Chennai",60
Shri Siddhi Vinayakar Temple,12.9743187,80.1847887,4.7,hindu_temple,15,"3rd Cross St, Lakshmi Nagar IV Stage, AGS Colony, Nanganallur, Chennai",60
Siddhivinayaka Temple,13.0299262,80.1866931,4.5,hindu_temple,2,"Mari Amman Koil St, Rayala Nagar, Ramapuram, Chennai",60
Siva Vishnu Temple,12.9713988,80.2180109,4.7,hindu_temple,212,"4th Cross St, Vijaya Nagar, Velachery, Chennai",60
Siva Vishnu Temple,13.0358799,80.2301333,4.6,hindu_temple,506,"2, Natesan Street, N Usman Rd, T. Nagar, Chennai",60
Sivan Temple,13.0239969,80.2521738,4.8,hindu_temple,12,"RA Puram, Nandanam, Chennai",60
Sivanandheswarar Temple.Padal petra temple,13.2451781,80.0955688,4.4,hindu_temple,31,"Sivanandheswarar Temple, Thirukkandalam",60
Sri Kaalikambal Temple,13.0943711,80.2891129,4.7,hindu_temple,4484,"212, Thambu Chetty St, near DHL Express Courier, Mannady, George Town, Chennai",60
SRI KURUNGALEESHWARAR TEMPLE,13.0729539,80.1973008,4.8,hindu_temple,167,"Virrugambakkam, Koyambedu, Chennai",60
Sri Mallikeswarar temple,13.0368545,80.2122543,4.7,hindu_temple,31,"near Metro Station, Zaffarkhanpet, Ashok Nagar, Chennai",60
Sri Navakkira Temple,13.0201746,80.2047008,0,hindu_temple,0,"No-1, 1st Pillaiyar Koil Street, Gandhi Nagar, Ambal Nagar, Ekkatuthangal, Chennai",60
Sri Rathnagiriswarar Temple,12.9966226,80.2670521,4.8,hindu_temple,918,"No 1, 6th Cross St, RBI Quarters, Besant Nagar, Chennai",60
Sri Thulaseeswarar Temple,12.7781646,79.9763285,4.9,hindu_temple,10,Appur R.F.,60
Sri Vedapureeswarar Temple,13.071588,80.1148152,4.7,hindu_temple,444,"Karpagambal Nagar, Tiruvallur District, Tiruverkadu",60
Thangavinayakar Temple,13.0347341,80.254204,4.5,hindu_temple,13,"Ramasamy Naicker Street, MIG Colony, Alwarpet, Chennai",60
Thiru Neelakandeswarar Temple,12.9602767,80.1821367,4.5,hindu_temple,67,"Eashwaran Koil St, Anbu Nagar, Keelkattalai, Chennai",60
Thrisulanathar Thirukkovil,12.9734702,80.1658456,4.6,hindu_temple,282,"Near Tirusulam Airport, Harbour quaters, Tirusulam, Chennai",60
Tirumala Tirupati Devasthanam,13.0358333,80.2363889,4.7,hindu_temple,8945,"No 26, Venkatanarayana Rd, Parthasarathi Puram, T. Nagar, Chennai",60
TNT025 - Thiruvanmiyur Shivan Temple(Padal Petra Temple),12.984957,80.2599861,4.6,hindu_temple,31,"34, East Coast Rd, Ambedkar Nagar, Kamaraj Nagar, Thiruvanmiyur, Chennai",60
Vadapalani Murugan Temple,13.0528421,80.2135209,4.7,hindu_temple,8118,"Palani Andavar Koil St, Vadapalani, Chennai",60
Vadapalani Murugan Temple,13.0528421,80.2135209,4.7,hindu_temple,8118,"Palani Andavar Koil St, Vadapalani, Chennai",60
"Vadaranyeswarar Swamy Temple மாந்தி கோயில்,Padal Petra Temple",13.1302742,79.7746536,4.7,hindu_temple,1175,"Thiruvalangadu Rd, Thiruvalangadu",60
Varashakthi Vinayagar Temple,12.9523562,80.2363014,4.5,hindu_temple,11,"Sri Sai Nagar, Oggiyamduraipakkam",60
Velleeswarar Temple,13.0325808,80.2694909,4.7,hindu_temple,870,"25, TSV Koil Street, Sankarapuram, Mylapore, Chennai",60
Vengeeswarar Temple,13.0487893,80.2124392,4.6,hindu_temple,1247,"36, Sannadhi St, Sarvamangala Colony, Aruna Colony, Vadapalani, Chennai",60
Vigneshwara Temple,13.0263099,80.2660434,4.5,hindu_temple,2,"S Canal Bank Rd, Jeth Nagar, Mandaveli, Chennai",60
Vinayak Temple,12.9873361,80.2341772,3.3,hindu_temple,4,"Temple Rd, Indian Institute Of Technology, Chennai",60
Vyagrapureeswarar Temple,12.7154047,79.9784214,4.5,hindu_temple,54,Thirutheri R.F.,60
Yoganarasimhar Temple,12.9838859,80.2224318,4.5,hindu_temple,17,"Velachery Main Rd, Ram Nagar, Murugapakkam, Velachery, Chennai",60
